{
  "geocompany" : [
    {
      "company" : "極洋",
      "latitude" : 35.6747407,
      "longitude" : 139.7381582,
      "code" : 1301,
      "place" : "〒107-0052 東京都港区赤坂３−３−５"
    },
    {
      "company" : "日本水産",
      "latitude" : 35.6853209,
      "longitude" : 139.7700388,
      "code" : 1332,
      "place" : "〒100-8686 東京都千代田区大手町２−６−２"
    },
    {
      "company" : "マルハニチロホールディングス",
      "latitude" : 35.65683569999999,
      "longitude" : 139.7956322,
      "code" : 1334,
      "place" : "〒135-8603 東京都江東区豊洲３−２−２０"
    },
    {
      "company" : "ホウスイ",
      "latitude" : 35.6626569,
      "longitude" : 139.7692035,
      "code" : 1352,
      "place" : "〒104-0045 東京都中央区築地５−２−１"
    },
    {
      "company" : "サカタのタネ",
      "latitude" : 35.5349886,
      "longitude" : 139.5926284,
      "code" : 1377,
      "place" : "〒224-8686 横浜市都筑区仲町台２−７−１"
    },
    {
      "company" : "ホクト",
      "latitude" : 36.6646875,
      "longitude" : 138.2418268,
      "code" : 1379,
      "place" : "〒381-8533 長野市南堀１３８−１"
    },
    {
      "company" : "ショーボンドホールディングス",
      "latitude" : 35.6804126,
      "longitude" : 139.7850783,
      "code" : 1414,
      "place" : "〒103-0015 東京都中央区日本橋箱崎町７−８"
    },
    {
      "company" : "ミライト・ホールディングス",
      "latitude" : 35.6521092,
      "longitude" : 139.7979626,
      "code" : 1417,
      "place" : "〒135-0061 東京都江東区豊洲５−６−３６"
    },
    {
      "company" : "タマホーム",
      "latitude" : 35.6319513,
      "longitude" : 139.7372069,
      "code" : 1419,
      "place" : "〒108-0074 東京都港区高輪３−２２−９"
    },
    {
      "company" : "住石ホールディングス",
      "latitude" : 35.662287,
      "longitude" : 139.7523796,
      "code" : 1514,
      "place" : "〒105-0004 東京都港区新橋６−１６−１２"
    },
    {
      "company" : "日鉄鉱業",
      "latitude" : 35.6816045,
      "longitude" : 139.7626366,
      "code" : 1515,
      "place" : "〒100-8377 東京都千代田区丸の内２−３−２"
    },
    {
      "company" : "三井松島産業",
      "latitude" : 33.5888879,
      "longitude" : 130.3858028,
      "code" : 1518,
      "place" : "〒810-8527 福岡市中央区大手門１−１−１２"
    },
    {
      "company" : "国際石油開発帝石",
      "latitude" : 35.6732241,
      "longitude" : 139.7364667,
      "code" : 1605,
      "place" : "〒107-6332 東京都港区赤坂５－３－１"
    },
    {
      "company" : "日本海洋掘削",
      "latitude" : 35.6894985,
      "longitude" : 139.7799381,
      "code" : 1606,
      "place" : "〒103-0012 東京都中央区日本橋堀留町２−４−３"
    },
    {
      "company" : "関東天然瓦斯開発",
      "latitude" : 35.686818,
      "longitude" : 139.7724942,
      "code" : 1661,
      "place" : "〒103-0022 東京都中央区日本橋室町２－１－１"
    },
    {
      "company" : "石油資源開発",
      "latitude" : 35.6838211,
      "longitude" : 139.7684668,
      "code" : 1662,
      "place" : "〒100-0005 東京都千代田区丸の内１−７−１２"
    },
    {
      "company" : "ダイセキ環境ソリューション",
      "latitude" : 35.0752653,
      "longitude" : 136.9017212,
      "code" : 1712,
      "place" : "〒455-0027 名古屋市港区船見町１−８６"
    },
    {
      "company" : "安藤・間",
      "latitude" : 35.6716493,
      "longitude" : 139.7363557,
      "code" : 1719,
      "place" : "〒107-8658 東京都港区赤坂６−１−２０"
    },
    {
      "company" : "東急建設",
      "latitude" : 35.6614745,
      "longitude" : 139.7025785,
      "code" : 1720,
      "place" : "〒150-8340 東京都渋谷区渋谷１−１６−１４"
    },
    {
      "company" : "コムシスホールディングス",
      "latitude" : 35.6234382,
      "longitude" : 139.7292718,
      "code" : 1721,
      "place" : "〒141-8647 東京都品川区東五反田２−１７−１"
    },
    {
      "company" : "ミサワホーム",
      "latitude" : 35.6881905,
      "longitude" : 139.6937618,
      "code" : 1722,
      "place" : "〒163-0833 東京都新宿区西新宿２−４−１"
    },
    {
      "company" : "高松コンストラクショングループ",
      "latitude" : 34.716199,
      "longitude" : 135.4804014,
      "code" : 1762,
      "place" : "〒532-0025 大阪市淀川区新北野１−２−３"
    },
    {
      "company" : "東建コーポレーション",
      "latitude" : 35.1767,
      "longitude" : 136.8971912,
      "code" : 1766,
      "place" : "〒460-0002 名古屋市中区丸の内２−１−３３"
    },
    {
      "company" : "ヤマウラ",
      "latitude" : 35.7415376,
      "longitude" : 137.936987,
      "code" : 1780,
      "place" : "〒399-4195 長野県駒ヶ根市北町２２−１"
    },
    {
      "company" : "大成建設",
      "latitude" : 35.6918401,
      "longitude" : 139.695542,
      "code" : 1801,
      "place" : "〒163-0606 東京都新宿区西新宿１−２５−１"
    },
    {
      "company" : "大林組",
      "latitude" : 35.626205,
      "longitude" : 139.7420068,
      "code" : 1802,
      "place" : "〒108-8502 東京都港区港南２−１５−２"
    },
    {
      "company" : "清水建設",
      "latitude" : 35.6765193,
      "longitude" : 139.7731084,
      "code" : 1803,
      "place" : "〒104-8370 東京都中央区京橋２−１６−１"
    },
    {
      "company" : "飛島建設",
      "latitude" : 35.5941408,
      "longitude" : 139.6207253,
      "code" : 1805,
      "place" : "〒213-0012 川崎市高津区坂戸３−２−１"
    },
    {
      "company" : "長谷工コーポレーション",
      "latitude" : 35.6504162,
      "longitude" : 139.7497496,
      "code" : 1808,
      "place" : "〒105-8507 東京都港区芝２−３２−１"
    },
    {
      "company" : "松井建設",
      "latitude" : 35.6782027,
      "longitude" : 139.7837716,
      "code" : 1810,
      "place" : "〒104-8281 東京都中央区新川１−１７−２２"
    },
    {
      "company" : "錢高組",
      "latitude" : 34.6821028,
      "longitude" : 135.4922552,
      "code" : 1811,
      "place" : "〒550-0005 大阪市西区西本町２−２−１１"
    },
    {
      "company" : "鹿島建設",
      "latitude" : 35.6773569,
      "longitude" : 139.7343334,
      "code" : 1812,
      "place" : "〒107-8388 東京都港区元赤坂１−３−１"
    },
    {
      "company" : "不動テトラ",
      "latitude" : 35.6820842,
      "longitude" : 139.7818626,
      "code" : 1813,
      "place" : "〒103-0016 東京都中央区日本橋小網町７−２"
    },
    {
      "company" : "大末建設",
      "latitude" : 34.6813224,
      "longitude" : 135.5038264,
      "code" : 1814,
      "place" : "〒541-0056 大阪市中央区久太郎町２−５−２８"
    },
    {
      "company" : "鉄建建設",
      "latitude" : 35.7000492,
      "longitude" : 139.7534255,
      "code" : 1815,
      "place" : "〒101-8366 東京都千代田区三崎町２−５−３"
    },
    {
      "company" : "日鉄住金テックスエンジ",
      "latitude" : 35.6799547,
      "longitude" : 139.7638088,
      "code" : 1819,
      "place" : "〒100-0005 東京都千代田区丸の内２−５−２"
    },
    {
      "company" : "西松建設",
      "latitude" : 35.6675558,
      "longitude" : 139.7493991,
      "code" : 1820,
      "place" : "〒105-8401 東京都港区虎ノ門１−２０−１０"
    },
    {
      "company" : "三井住友建設",
      "latitude" : 35.6696205,
      "longitude" : 139.785469,
      "code" : 1821,
      "place" : "〒104-0051 東京都中央区佃２−１−６"
    },
    {
      "company" : "大豊建設",
      "latitude" : 35.6766002,
      "longitude" : 139.785541,
      "code" : 1822,
      "place" : "〒104-8289 東京都中央区新川１−２４−４"
    },
    {
      "company" : "前田建設工業",
      "latitude" : 35.70081589999999,
      "longitude" : 139.7577919,
      "code" : 1824,
      "place" : "〒101-0064 東京都千代田区猿楽町２−８−８"
    },
    {
      "company" : "佐田建設",
      "latitude" : 36.3849374,
      "longitude" : 139.0443299,
      "code" : 1826,
      "place" : "〒371-0846 前橋市元総社町１−１−７"
    },
    {
      "company" : "ナカノフドー建設",
      "latitude" : 35.692283,
      "longitude" : 139.7379824,
      "code" : 1827,
      "place" : "〒102-0073 東京都千代田区九段北４−２−２８"
    },
    {
      "company" : "奥村組",
      "latitude" : 34.6443017,
      "longitude" : 135.5165736,
      "code" : 1833,
      "place" : "〒545-8555 大阪市阿倍野区松崎町２−２−２"
    },
    {
      "company" : "大和小田急建設",
      "latitude" : 35.6878237,
      "longitude" : 139.6884346,
      "code" : 1834,
      "place" : "〒160-8377 東京都新宿区西新宿４−３２−２２"
    },
    {
      "company" : "東鉄工業",
      "latitude" : 35.6801423,
      "longitude" : 139.7201511,
      "code" : 1835,
      "place" : "〒160-8589 東京都新宿区信濃町３４"
    },
    {
      "company" : "イチケン",
      "latitude" : 35.71832200000001,
      "longitude" : 139.7838599,
      "code" : 1847,
      "place" : "〒110-0014 東京都台東区北上野２−２３−５"
    },
    {
      "company" : "淺沼組",
      "latitude" : 34.6663519,
      "longitude" : 135.522353,
      "code" : 1852,
      "place" : "〒543-8688 大阪市天王寺区東高津町１２−６"
    },
    {
      "company" : "戸田建設",
      "latitude" : 35.6785107,
      "longitude" : 139.7716223,
      "code" : 1860,
      "place" : "〒104-8388 東京都中央区京橋１−７−１"
    },
    {
      "company" : "熊谷組",
      "latitude" : 35.7029846,
      "longitude" : 139.7412456,
      "code" : 1861,
      "place" : "〒162-8557 東京都新宿区津久戸町２−１"
    },
    {
      "company" : "青木あすなろ建設",
      "latitude" : 35.648722,
      "longitude" : 139.7530938,
      "code" : 1865,
      "place" : "〒108-0014 東京都港区芝４−８−２"
    },
    {
      "company" : "北野建設",
      "latitude" : 36.6527374,
      "longitude" : 138.1846942,
      "code" : 1866,
      "place" : "〒380-8524 長野市県町５２４"
    },
    {
      "company" : "植木組",
      "latitude" : 37.366181,
      "longitude" : 138.5526065,
      "code" : 1867,
      "place" : "〒945-8540 新潟県柏崎市新橋２−８"
    },
    {
      "company" : "三井ホーム",
      "latitude" : 35.6919012,
      "longitude" : 139.6939116,
      "code" : 1868,
      "place" : "〒163-0453 東京都新宿区西新宿２−１−１"
    },
    {
      "company" : "矢作建設工業",
      "latitude" : 35.1706211,
      "longitude" : 136.9275145,
      "code" : 1870,
      "place" : "〒461-0004 名古屋市東区葵３−１９−７"
    },
    {
      "company" : "ピーエス三菱",
      "latitude" : 35.655394,
      "longitude" : 139.7825862,
      "code" : 1871,
      "place" : "〒104-8215 東京都中央区晴海２−５−２４"
    },
    {
      "company" : "大東建託",
      "latitude" : 35.6279075,
      "longitude" : 139.7407262,
      "code" : 1878,
      "place" : "〒108-8211 東京都港区港南２−１６−１"
    },
    {
      "company" : "新日本建設",
      "latitude" : 35.6501228,
      "longitude" : 140.045111,
      "code" : 1879,
      "place" : "〒261-0021 千葉市美浜区ひび野１−４−３"
    },
    {
      "company" : "ＮＩＰＰＯ",
      "latitude" : 35.67774970000001,
      "longitude" : 139.7743583,
      "code" : 1881,
      "place" : "〒104-8380 東京都中央区京橋１−１９−１１"
    },
    {
      "company" : "東亜道路工業",
      "latitude" : 35.6702827,
      "longitude" : 139.7330116,
      "code" : 1882,
      "place" : "〒107-0052 東京都港区赤坂７−８−５"
    },
    {
      "company" : "前田道路",
      "latitude" : 35.61850560000001,
      "longitude" : 139.7313385,
      "code" : 1883,
      "place" : "〒141-8665 東京都品川区大崎１−１１−３"
    },
    {
      "company" : "日本道路",
      "latitude" : 35.6668118,
      "longitude" : 139.7617482,
      "code" : 1884,
      "place" : "〒105-0004 東京都港区新橋１−６−５"
    },
    {
      "company" : "東亜建設工業",
      "latitude" : 35.6853741,
      "longitude" : 139.6909705,
      "code" : 1885,
      "place" : "〒163-1031 東京都新宿区西新宿３−７−１"
    },
    {
      "company" : "若築建設",
      "latitude" : 35.6302896,
      "longitude" : 139.7104926,
      "code" : 1888,
      "place" : "〒153-0064 東京都目黒区下目黒２−２３−１８"
    },
    {
      "company" : "東洋建設",
      "latitude" : 35.6175978,
      "longitude" : 139.7784674,
      "code" : 1890,
      "place" : "〒135-0064 東京都江東区青海２−４−２４"
    },
    {
      "company" : "五洋建設",
      "latitude" : 35.7037707,
      "longitude" : 139.7451009,
      "code" : 1893,
      "place" : "〒112-8576 東京都文京区後楽２−２−８"
    },
    {
      "company" : "大林道路",
      "latitude" : 35.7274038,
      "longitude" : 139.8112314,
      "code" : 1896,
      "place" : "〒131-8540 東京都墨田区堤通１−１９−９"
    },
    {
      "company" : "世紀東急工業",
      "latitude" : 35.6548213,
      "longitude" : 139.7517715,
      "code" : 1898,
      "place" : "〒105-8509 東京都港区芝公園２−９−３"
    },
    {
      "company" : "福田組",
      "latitude" : 35.6929636,
      "longitude" : 139.7413544,
      "code" : 1899,
      "place" : "〒102-0073 東京都千代田区九段北３−２−４"
    },
    {
      "company" : "住友林業",
      "latitude" : 35.6887564,
      "longitude" : 139.7635141,
      "code" : 1911,
      "place" : "〒100-8270 東京都千代田区大手町１−３−２"
    },
    {
      "company" : "日本基礎技術",
      "latitude" : 34.6989537,
      "longitude" : 135.5154361,
      "code" : 1914,
      "place" : "〒530-0037 大阪市北区松ケ枝町６−２２"
    },
    {
      "company" : "日成ビルド工業",
      "latitude" : 36.6059906,
      "longitude" : 136.600516,
      "code" : 1916,
      "place" : "〒920-0396 金沢市金石北３−１６−１０"
    },
    {
      "company" : "ヤマダ・エスバイエルホーム",
      "latitude" : 34.6999792,
      "longitude" : 135.5198577,
      "code" : 1919,
      "place" : "〒530-6005 大阪市北区天満橋１−８−３０"
    },
    {
      "company" : "巴コーポレーション",
      "latitude" : 35.6570632,
      "longitude" : 139.7770893,
      "code" : 1921,
      "place" : "〒104-0054 東京都中央区勝どき４−５−１７"
    },
    {
      "company" : "パナホーム",
      "latitude" : 34.8097849,
      "longitude" : 135.4916673,
      "code" : 1924,
      "place" : "〒560-8543 大阪府豊中市新千里西町１−１−４"
    },
    {
      "company" : "大和ハウス工業",
      "latitude" : 34.6993952,
      "longitude" : 135.4928185,
      "code" : 1925,
      "place" : "〒530-8241 大阪市北区梅田３−３−５"
    },
    {
      "company" : "ライト工業",
      "latitude" : 35.689811,
      "longitude" : 139.7351938,
      "code" : 1926,
      "place" : "〒102-0076 東京都千代田区五番町６−２"
    },
    {
      "company" : "積水ハウス",
      "latitude" : 34.705375,
      "longitude" : 135.4905242,
      "code" : 1928,
      "place" : "〒531-0076 大阪市北区大淀中１−１−８８"
    },
    {
      "company" : "日特建設",
      "latitude" : 35.6667666,
      "longitude" : 139.7640499,
      "code" : 1929,
      "place" : "〒104-0061 東京都中央区銀座８−１４−１４"
    },
    {
      "company" : "北陸電気工事",
      "latitude" : 36.6397009,
      "longitude" : 137.2115846,
      "code" : 1930,
      "place" : "〒939-8571 富山市小中２６９"
    },
    {
      "company" : "ユアテック",
      "latitude" : 38.2592497,
      "longitude" : 140.8864435,
      "code" : 1934,
      "place" : "〒983-8622 仙台市宮城野区榴岡４−１−１"
    },
    {
      "company" : "西部電気工業",
      "latitude" : 33.5881692,
      "longitude" : 130.4282274,
      "code" : 1937,
      "place" : "〒812-8565 福岡市博多区博多駅東３−７−１"
    },
    {
      "company" : "四電工",
      "latitude" : 34.3406827,
      "longitude" : 134.0594901,
      "code" : 1939,
      "place" : "〒760-8587 高松市松島町１−１１−２２"
    },
    {
      "company" : "中電工",
      "latitude" : 34.3929856,
      "longitude" : 132.4448011,
      "code" : 1941,
      "place" : "〒730-0855 広島市中区小網町６−１２"
    },
    {
      "company" : "関電工",
      "latitude" : 35.6383397,
      "longitude" : 139.7453837,
      "code" : 1942,
      "place" : "〒108-8533 東京都港区芝浦４−８−３３"
    },
    {
      "company" : "きんでん",
      "latitude" : 34.7147078,
      "longitude" : 135.5087253,
      "code" : 1944,
      "place" : "〒531-8550 大阪市北区本庄東２−３−４１"
    },
    {
      "company" : "東京エネシス",
      "latitude" : 35.6807718,
      "longitude" : 139.7801189,
      "code" : 1945,
      "place" : "〒103-0025 東京都中央区日本橋茅場町１−３−１"
    },
    {
      "company" : "トーエネック",
      "latitude" : 35.1642371,
      "longitude" : 136.8927107,
      "code" : 1946,
      "place" : "〒460-8408 名古屋市中区栄１−２０−３１"
    },
    {
      "company" : "住友電設",
      "latitude" : 34.68083900000001,
      "longitude" : 135.4926524,
      "code" : 1949,
      "place" : "〒550-8550 大阪市西区阿波座２−１−４"
    },
    {
      "company" : "日本電設工業",
      "latitude" : 35.7094542,
      "longitude" : 139.7687715,
      "code" : 1950,
      "place" : "〒110-8706 東京都台東区池之端１−２−２３"
    },
    {
      "company" : "協和エクシオ",
      "latitude" : 35.6554253,
      "longitude" : 139.704148,
      "code" : 1951,
      "place" : "〒150-0002 東京都渋谷区渋谷３−２９−２０"
    },
    {
      "company" : "新日本空調",
      "latitude" : 35.68784369999999,
      "longitude" : 139.7870157,
      "code" : 1952,
      "place" : "〒103-0007 東京都中央区日本橋浜町２−３１−１"
    },
    {
      "company" : "日本工営",
      "latitude" : 35.684981,
      "longitude" : 139.7339525,
      "code" : 1954,
      "place" : "〒102-8539 東京都千代田区麹町５−４"
    },
    {
      "company" : "ＮＤＳ",
      "latitude" : 35.1563724,
      "longitude" : 136.9152617,
      "code" : 1956,
      "place" : "〒460-0012 名古屋市中区千代田２−１５−１８"
    },
    {
      "company" : "九電工",
      "latitude" : 33.5757452,
      "longitude" : 130.4127816,
      "code" : 1959,
      "place" : "〒815-0081 福岡市南区那の川１−２３−３５"
    },
    {
      "company" : "三機工業",
      "latitude" : 35.6670372,
      "longitude" : 139.7786722,
      "code" : 1961,
      "place" : "〒104-8506 東京都中央区明石町８−１"
    },
    {
      "company" : "日揮",
      "latitude" : 35.456459,
      "longitude" : 139.632331,
      "code" : 1963,
      "place" : "〒220-6001 横浜市西区みなとみらい２−３−１"
    },
    {
      "company" : "中外炉工業",
      "latitude" : 34.6874384,
      "longitude" : 135.5012292,
      "code" : 1964,
      "place" : "〒541-0046 大阪市中央区平野町３−６−１"
    },
    {
      "company" : "ヤマト",
      "latitude" : 36.3758833,
      "longitude" : 139.0463634,
      "code" : 1967,
      "place" : "〒371-0844 前橋市古市町１１８"
    },
    {
      "company" : "太平電業",
      "latitude" : 35.6961164,
      "longitude" : 139.7559588,
      "code" : 1968,
      "place" : "〒101-8416 東京都千代田区神田神保町２−４"
    },
    {
      "company" : "高砂熱学工業",
      "latitude" : 35.6975555,
      "longitude" : 139.7662637,
      "code" : 1969,
      "place" : "〒101-8321 東京都千代田区神田駿河台４−２−５"
    },
    {
      "company" : "有機合成薬品工業",
      "latitude" : 35.6873683,
      "longitude" : 139.7817992,
      "code" : 4531,
      "place" : "〒103-0013 東京都中央区日本橋人形町３−１０−４"
    },
    {
      "company" : "持田製薬",
      "latitude" : 35.6869556,
      "longitude" : 139.7286861,
      "code" : 4534,
      "place" : "〒160-8515 東京都新宿区四谷１−７"
    },
    {
      "company" : "参天製薬",
      "latitude" : 34.7019921,
      "longitude" : 135.491838,
      "code" : 4536,
      "place" : "〒530-8552 大阪市北区大深町４−２０"
    },
    {
      "company" : "扶桑薬品工業",
      "latitude" : 34.6835311,
      "longitude" : 135.5397483,
      "code" : 4538,
      "place" : "〒536-8523 大阪市城東区森之宮２−３−１１"
    },
    {
      "company" : "日本ケミファ",
      "latitude" : 35.6930996,
      "longitude" : 139.7771693,
      "code" : 4539,
      "place" : "〒101-0032 東京都千代田区岩本町２−２−３"
    },
    {
      "company" : "ツムラ",
      "latitude" : 35.6706301,
      "longitude" : 139.7394277,
      "code" : 4540,
      "place" : "〒107-8521 東京都港区赤坂２−１７−１１"
    },
    {
      "company" : "日医工",
      "latitude" : 36.6920996,
      "longitude" : 137.2130243,
      "code" : 4541,
      "place" : "〒930-8583 富山市総曲輪１−６−２１"
    },
    {
      "company" : "テルモ",
      "latitude" : 35.67872440000001,
      "longitude" : 139.6759331,
      "code" : 4543,
      "place" : "〒151-0072 東京都渋谷区幡ケ谷２−４４−１"
    },
    {
      "company" : "みらかホールディングス",
      "latitude" : 35.6919012,
      "longitude" : 139.6939116,
      "code" : 4544,
      "place" : "〒163-0408 東京都新宿区西新宿２−１−１"
    },
    {
      "company" : "キッセイ薬品工業",
      "latitude" : 36.2031982,
      "longitude" : 137.9662723,
      "code" : 4547,
      "place" : "〒399-8710 長野県松本市芳野１９−４８"
    },
    {
      "company" : "生化学工業",
      "latitude" : 35.6840637,
      "longitude" : 139.7657671,
      "code" : 4548,
      "place" : "〒100-0005 東京都千代田区丸の内１−６−１"
    },
    {
      "company" : "栄研化学",
      "latitude" : 35.7067326,
      "longitude" : 139.7784321,
      "code" : 4549,
      "place" : "〒110-8408 東京都台東区台東４−１９−９"
    },
    {
      "company" : "日水製薬",
      "latitude" : 35.7064463,
      "longitude" : 139.7731435,
      "code" : 4550,
      "place" : "〒110-8736 東京都台東区上野３−２３−９"
    },
    {
      "company" : "鳥居薬品",
      "latitude" : 35.6886873,
      "longitude" : 139.7748885,
      "code" : 4551,
      "place" : "〒103-8439 東京都中央区日本橋本町３−４−１"
    },
    {
      "company" : "東和薬品",
      "latitude" : 34.7379453,
      "longitude" : 135.585235,
      "code" : 4553,
      "place" : "〒571-8580 大阪府門真市新橋町２−１１"
    },
    {
      "company" : "富士製薬工業",
      "latitude" : 35.6896168,
      "longitude" : 139.7432044,
      "code" : 4554,
      "place" : "〒102-0075 東京都千代田区三番町５−７"
    },
    {
      "company" : "沢井製薬",
      "latitude" : 34.7390295,
      "longitude" : 135.4979179,
      "code" : 4555,
      "place" : "〒532-0003 大阪市淀川区宮原５−２−３０"
    },
    {
      "company" : "ゼリア新薬工業",
      "latitude" : 35.6862877,
      "longitude" : 139.7788744,
      "code" : 4559,
      "place" : "〒103-8351 東京都中央区日本橋小舟町１０−１１"
    },
    {
      "company" : "第一三共",
      "latitude" : 35.6884763,
      "longitude" : 139.7755884,
      "code" : 4568,
      "place" : "〒103-8426 東京都中央区日本橋本町３−５−１"
    },
    {
      "company" : "キョーリン製薬ホールディングス",
      "latitude" : 35.6978221,
      "longitude" : 139.7660665,
      "code" : 4569,
      "place" : "〒101-8311 東京都千代田区神田駿河台４−６"
    },
    {
      "company" : "大幸薬品",
      "latitude" : 34.75438130000001,
      "longitude" : 135.5269315,
      "code" : 4574,
      "place" : "〒564-0032 大阪府吹田市内本町３−３４−１４"
    },
    {
      "company" : "ダイト",
      "latitude" : 36.6512243,
      "longitude" : 137.2015688,
      "code" : 4577,
      "place" : "〒939-8567 富山市八日町３２６"
    },
    {
      "company" : "大塚ホールディングス",
      "latitude" : 35.6266743,
      "longitude" : 139.740443,
      "code" : 4578,
      "place" : "〒108-8241 東京都港区港南２−１６−４"
    },
    {
      "company" : "大正製薬ホールディングス",
      "latitude" : 35.7151741,
      "longitude" : 139.7101366,
      "code" : 4581,
      "place" : "〒170-8655 東京都豊島区高田３−２４−１"
    },
    {
      "company" : "大日本塗料",
      "latitude" : 34.6837018,
      "longitude" : 135.4633383,
      "code" : 4611,
      "place" : "〒554-0012 大阪市此花区西九条６−１−１２４"
    },
    {
      "company" : "日本ペイント",
      "latitude" : 34.7058164,
      "longitude" : 135.4820749,
      "code" : 4612,
      "place" : "〒531-8511 大阪市北区大淀北２−１−２"
    },
    {
      "company" : "関西ペイント",
      "latitude" : 34.6903854,
      "longitude" : 135.5039011,
      "code" : 4613,
      "place" : "〒541-8523 大阪市中央区今橋２−６−１４"
    },
    {
      "company" : "神東塗料",
      "latitude" : 34.7447219,
      "longitude" : 135.415266,
      "code" : 4615,
      "place" : "〒661-8511 兵庫県尼崎市南塚口町６−１０−７３"
    },
    {
      "company" : "中国塗料",
      "latitude" : 35.6719941,
      "longitude" : 139.7471992,
      "code" : 4617,
      "place" : "〒100-0013 東京都千代田区霞が関３−２−６"
    },
    {
      "company" : "日本特殊塗料",
      "latitude" : 35.7663945,
      "longitude" : 139.7384823,
      "code" : 4619,
      "place" : "〒114-8584 東京都北区王子５−１６−７"
    },
    {
      "company" : "藤倉化成",
      "latitude" : 35.6552553,
      "longitude" : 139.7504144,
      "code" : 4620,
      "place" : "〒105-0011 東京都港区芝公園２−６−１５"
    },
    {
      "company" : "太陽ホールディングス",
      "latitude" : 35.7430783,
      "longitude" : 139.6710612,
      "code" : 4626,
      "place" : "〒176-8508 東京都練馬区羽沢２−７−１"
    },
    {
      "company" : "ＤＩＣ",
      "latitude" : 35.6963667,
      "longitude" : 139.7674942,
      "code" : 4631,
      "place" : "〒101-0063 東京都千代田区神田淡路町２−１０１"
    },
    {
      "company" : "サカタインクス",
      "latitude" : 34.6892408,
      "longitude" : 135.492991,
      "code" : 4633,
      "place" : "〒550-0002 大阪市西区江戸堀１−２３−３７"
    },
    {
      "company" : "東洋インキＳＣホールディングス",
      "latitude" : 35.6757249,
      "longitude" : 139.7700447,
      "code" : 4634,
      "place" : "〒104-8377 東京都中央区京橋３−７−１"
    },
    {
      "company" : "Ｔ＆Ｋ　ＴＯＫＡ",
      "latitude" : 35.7653101,
      "longitude" : 139.7001635,
      "code" : 4636,
      "place" : "〒174-0055 東京都板橋区泉町２０−４"
    },
    {
      "company" : "アルプス技研",
      "latitude" : 35.4570395,
      "longitude" : 139.6341003,
      "code" : 4641,
      "place" : "〒220-6218 横浜市西区みなとみらい２−３−５"
    },
    {
      "company" : "サニックス",
      "latitude" : 33.5890552,
      "longitude" : 130.4227694,
      "code" : 4651,
      "place" : "〒812-0013 福岡市博多区博多駅東２−１−２３"
    },
    {
      "company" : "ダイオーズ",
      "latitude" : 35.6559879,
      "longitude" : 139.7564489,
      "code" : 4653,
      "place" : "〒105-6123 東京都港区浜松町２−４−１"
    },
    {
      "company" : "日本空調サービス",
      "latitude" : 35.1755425,
      "longitude" : 137.0247815,
      "code" : 4658,
      "place" : "〒465-0042 名古屋市名東区照が丘２３９−２"
    },
    {
      "company" : "オリエンタルランド",
      "latitude" : 35.6355849,
      "longitude" : 139.8845778,
      "code" : 4661,
      "place" : "〒279-8511 千葉県浦安市舞浜１−１"
    },
    {
      "company" : "ダスキン",
      "latitude" : 34.7601075,
      "longitude" : 135.4965674,
      "code" : 4665,
      "place" : "〒564-0051 大阪府吹田市豊津町１−３３"
    },
    {
      "company" : "パーク２４",
      "latitude" : 35.6742637,
      "longitude" : 139.7637618,
      "code" : 4666,
      "place" : "〒100-8424 東京都千代田区有楽町２−７−１"
    },
    {
      "company" : "明光ネットワークジャパン",
      "latitude" : 35.6943926,
      "longitude" : 139.6960224,
      "code" : 4668,
      "place" : "〒160-0023 東京都新宿区西新宿７−２０−１"
    },
    {
      "company" : "ファルコＳＤホールディングス",
      "latitude" : 35.0139472,
      "longitude" : 135.7691487,
      "code" : 4671,
      "place" : "〒604-0911 京都市中京区河原町通二条上る清水町３４６"
    },
    {
      "company" : "クレスコ",
      "latitude" : 35.6278159,
      "longitude" : 139.74209,
      "code" : 4674,
      "place" : "〒108-6026 東京都港区港南２−１５−１"
    },
    {
      "company" : "フジ・メディア・ホールディングス",
      "latitude" : 35.6268582,
      "longitude" : 139.7741488,
      "code" : 4676,
      "place" : "〒137-8088 東京都港区台場２−４−８"
    },
    {
      "company" : "秀英予備校",
      "latitude" : 34.9770479,
      "longitude" : 138.3883951,
      "code" : 4678,
      "place" : "〒420-0839 静岡市葵区鷹匠２−７−１"
    },
    {
      "company" : "田谷",
      "latitude" : 35.6730873,
      "longitude" : 139.7098247,
      "code" : 4679,
      "place" : "〒150-0001 東京都渋谷区神宮前２−１８−１９"
    },
    {
      "company" : "ラウンドワン",
      "latitude" : 34.5823107,
      "longitude" : 135.4679683,
      "code" : 4680,
      "place" : "〒590-0985 堺市堺区戎島町４−４５−１"
    },
    {
      "company" : "リゾートトラスト",
      "latitude" : 35.1702427,
      "longitude" : 136.9178999,
      "code" : 4681,
      "place" : "〒460-8490 名古屋市中区東桜２−１８−３１"
    },
    {
      "company" : "オービック",
      "latitude" : 35.6767747,
      "longitude" : 139.7693336,
      "code" : 4684,
      "place" : "〒104-8328 東京都中央区京橋２−４−１５"
    },
    {
      "company" : "ＴＤＣソフトウェアエンジニアリング",
      "latitude" : 35.6862352,
      "longitude" : 139.6949145,
      "code" : 4687,
      "place" : "〒151-0053 東京都渋谷区代々木３−２２−７"
    },
    {
      "company" : "ヤフー",
      "latitude" : 35.6662026,
      "longitude" : 139.7312591,
      "code" : 4689,
      "place" : "〒107-6211 東京都港区赤坂９－７－１"
    },
    {
      "company" : "ビー・エム・エル",
      "latitude" : 35.6833247,
      "longitude" : 139.7041997,
      "code" : 4694,
      "place" : "〒151-0051 東京都渋谷区千駄ヶ谷５−２１−３"
    },
    {
      "company" : "ワタベウェディング",
      "latitude" : 35.0014206,
      "longitude" : 135.7593386,
      "code" : 4696,
      "place" : "〒600-8540 京都市下京区烏丸通仏光寺上る二帖半敷町６７１"
    },
    {
      "company" : "トレンドマイクロ",
      "latitude" : 35.6853632,
      "longitude" : 139.6990948,
      "code" : 4704,
      "place" : "〒151-0053 東京都渋谷区代々木２−１−１"
    },
    {
      "company" : "もしもしホットライン",
      "latitude" : 35.6876102,
      "longitude" : 139.7003861,
      "code" : 4708,
      "place" : "〒151-8583 東京都渋谷区代々木２−２−１"
    },
    {
      "company" : "リソー教育",
      "latitude" : 35.7201651,
      "longitude" : 139.705373,
      "code" : 4714,
      "place" : "〒171-0031 東京都豊島区目白３−１−４０"
    },
    {
      "company" : "日本オラクル",
      "latitude" : 35.6712377,
      "longitude" : 139.7186517,
      "code" : 4716,
      "place" : "〒107-0061 東京都港区北青山２−５−８"
    },
    {
      "company" : "早稲田アカデミー",
      "latitude" : 35.7342666,
      "longitude" : 139.7089748,
      "code" : 4718,
      "place" : "〒171-0014 東京都豊島区池袋２−５３−７"
    },
    {
      "company" : "アルファシステムズ",
      "latitude" : 35.57916549999999,
      "longitude" : 139.6467236,
      "code" : 4719,
      "place" : "〒211-0053 川崎市中原区上小田中６−６−１"
    },
    {
      "company" : "フューチャーアーキテクト",
      "latitude" : 35.6225491,
      "longitude" : 139.7228535,
      "code" : 4722,
      "place" : "〒141-0032 東京都品川区大崎１−２−２"
    },
    {
      "company" : "シーエーシー",
      "latitude" : 35.6806078,
      "longitude" : 139.7864165,
      "code" : 4725,
      "place" : "〒103-0015 東京都中央区日本橋箱崎町２４−１"
    },
    {
      "company" : "ソフトバンク・テクノロジー",
      "latitude" : 35.7082673,
      "longitude" : 139.7376373,
      "code" : 4726,
      "place" : "〒162-0812 東京都新宿区西五軒町１３−１"
    },
    {
      "company" : "トーセ",
      "latitude" : 35.0027871,
      "longitude" : 135.7610135,
      "code" : 4728,
      "place" : "〒600-8091 京都市下京区東洞院通四条下ル"
    },
    {
      "company" : "ユー・エス・エス",
      "latitude" : 35.064747,
      "longitude" : 136.8916922,
      "code" : 4732,
      "place" : "〒476-0005 愛知県東海市新宝町５０７−２０"
    },
    {
      "company" : "オービックビジネスコンサルタント",
      "latitude" : 35.6939314,
      "longitude" : 139.6905425,
      "code" : 4733,
      "place" : "〒163-6032 東京都新宿区西新宿６−８−１"
    },
    {
      "company" : "伊藤忠テクノソリューションズ",
      "latitude" : 35.6719941,
      "longitude" : 139.7471992,
      "code" : 4739,
      "place" : "〒100-6080 東京都千代田区霞が関３−２−５"
    },
    {
      "company" : "アイティフォー",
      "latitude" : 35.687456,
      "longitude" : 139.7427184,
      "code" : 4743,
      "place" : "〒102-0082 東京都千代田区一番町２１"
    },
    {
      "company" : "東京個別指導学院",
      "latitude" : 35.669476,
      "longitude" : 139.7846662,
      "code" : 4745,
      "place" : "〒104-0051 東京都中央区佃１−１１−８"
    },
    {
      "company" : "東計電算",
      "latitude" : 35.5711692,
      "longitude" : 139.6595481,
      "code" : 4746,
      "place" : "〒211-8550 川崎市中原区市ノ坪１５０"
    },
    {
      "company" : "エックスネット",
      "latitude" : 35.6899884,
      "longitude" : 139.7238585,
      "code" : 4762,
      "place" : "〒160-0007 東京都新宿区荒木町１３−４"
    },
    {
      "company" : "テー・オー・ダブリュー",
      "latitude" : 35.6637811,
      "longitude" : 139.7441914,
      "code" : 4767,
      "place" : "〒105-0001 東京都港区虎ノ門４－３－１３"
    },
    {
      "company" : "大塚商会",
      "latitude" : 35.69978529999999,
      "longitude" : 139.7509396,
      "code" : 4768,
      "place" : "〒102-8573 東京都千代田区飯田橋２−１８−４"
    },
    {
      "company" : "総合メディカル",
      "latitude" : 33.5911722,
      "longitude" : 130.3966213,
      "code" : 4775,
      "place" : "〒810-0001 福岡市中央区天神２－１４－８"
    },
    {
      "company" : "サイボウズ",
      "latitude" : 35.7035588,
      "longitude" : 139.7496359,
      "code" : 4776,
      "place" : "〒112-0004 東京都文京区後楽１−４−１４"
    },
    {
      "company" : "ソフトブレーン",
      "latitude" : 35.678903,
      "longitude" : 139.7686424,
      "code" : 4779,
      "place" : "〒104-0028 東京都中央区八重洲２−３−１"
    },
    {
      "company" : "アグレックス",
      "latitude" : 35.6914206,
      "longitude" : 139.6925951,
      "code" : 4799,
      "place" : "〒163-0216 東京都新宿区西新宿２−６−１"
    },
    {
      "company" : "セントラルスポーツ",
      "latitude" : 35.6770504,
      "longitude" : 139.7867161,
      "code" : 4801,
      "place" : "〒104-8255 東京都中央区新川１−２１−２"
    },
    {
      "company" : "パラカ",
      "latitude" : 35.6607231,
      "longitude" : 139.7436082,
      "code" : 4809,
      "place" : "〒106-0041 東京都港区麻布台１−１１−９"
    },
    {
      "company" : "電通国際情報サービス",
      "latitude" : 35.6248828,
      "longitude" : 139.7393543,
      "code" : 4812,
      "place" : "〒108-0075 東京都港区港南２−１７−１"
    },
    {
      "company" : "イーエムシステムズ",
      "latitude" : 34.73553,
      "longitude" : 135.4996456,
      "code" : 4820,
      "place" : "〒532-0003 大阪市淀川区宮原１−６−１"
    },
    {
      "company" : "ウェザーニューズ",
      "latitude" : 35.6517892,
      "longitude" : 140.0415667,
      "code" : 4825,
      "place" : "〒261-0023 千葉市美浜区中瀬１−３"
    },
    {
      "company" : "ＣＩＪ",
      "latitude" : 35.4608335,
      "longitude" : 139.6213095,
      "code" : 4826,
      "place" : "〒220-0023 横浜市西区平沼１−２−２４"
    },
    {
      "company" : "ＷＯＷＯＷ",
      "latitude" : 35.6727686,
      "longitude" : 139.7333531,
      "code" : 4839,
      "place" : "〒107-6121 東京都港区赤坂５−２−２０"
    },
    {
      "company" : "フルキャストホールディングス",
      "latitude" : 35.6209188,
      "longitude" : 139.7199921,
      "code" : 4848,
      "place" : "〒141-0031 東京都品川区西五反田８−９−５"
    },
    {
      "company" : "富士フイルムホールディングス",
      "latitude" : 35.6655666,
      "longitude" : 139.7304953,
      "code" : 4901,
      "place" : "〒107-0052 東京都港区赤坂９−７−３"
    },
    {
      "company" : "コニカミノルタ",
      "latitude" : 35.6796409,
      "longitude" : 139.7650865,
      "code" : 4902,
      "place" : "〒100-7015 東京都千代田区丸の内２−７−２"
    },
    {
      "company" : "資生堂",
      "latitude" : 35.6698364,
      "longitude" : 139.7612398,
      "code" : 4911,
      "place" : "〒104-0061 東京都中央区銀座７−５−５"
    },
    {
      "company" : "ライオン",
      "latitude" : 35.7029832,
      "longitude" : 139.7960199,
      "code" : 4912,
      "place" : "〒130-8644 東京都墨田区本所１−３−７"
    },
    {
      "company" : "高砂香料工業",
      "latitude" : 35.5609319,
      "longitude" : 139.718187,
      "code" : 4914,
      "place" : "〒144-8721 東京都大田区蒲田５−３７−１"
    },
    {
      "company" : "マンダム",
      "latitude" : 34.6770146,
      "longitude" : 135.5149894,
      "code" : 4917,
      "place" : "〒540-8530 大阪市中央区十二軒町５−１２"
    },
    {
      "company" : "ミルボン",
      "latitude" : 34.7109698,
      "longitude" : 135.5269738,
      "code" : 4919,
      "place" : "〒534-0015 大阪市都島区善源寺町２−３−３５"
    },
    {
      "company" : "ファンケル",
      "latitude" : 35.4475379,
      "longitude" : 139.6452555,
      "code" : 4921,
      "place" : "〒231-8528 横浜市中区山下町８９−１"
    },
    {
      "company" : "コーセー",
      "latitude" : 35.679705,
      "longitude" : 139.7724278,
      "code" : 4922,
      "place" : "〒103-8251 東京都中央区日本橋３−６−２"
    },
    {
      "company" : "ドクターシーラボ",
      "latitude" : 35.6497762,
      "longitude" : 139.7127613,
      "code" : 4924,
      "place" : "〒150-0012 東京都渋谷区広尾１−１−３９"
    },
    {
      "company" : "シーボン",
      "latitude" : 35.6029672,
      "longitude" : 139.5530985,
      "code" : 4926,
      "place" : "〒216-8556 川崎市宮前区菅生１−２０−８"
    },
    {
      "company" : "ポーラ・オルビスホールディングス",
      "latitude" : 35.6690013,
      "longitude" : 139.7617938,
      "code" : 4927,
      "place" : "〒104-0061 東京都中央区銀座１−７−７"
    },
    {
      "company" : "ノエビアホールディングス",
      "latitude" : 34.6657495,
      "longitude" : 135.2116493,
      "code" : 4928,
      "place" : "〒650-8521 神戸市中央区港島中町６−１３−１"
    },
    {
      "company" : "エステー",
      "latitude" : 35.7160096,
      "longitude" : 139.6979295,
      "code" : 4951,
      "place" : "〒161-8540 東京都新宿区下落合１−４−１０"
    },
    {
      "company" : "コニシ",
      "latitude" : 34.6882273,
      "longitude" : 135.5068731,
      "code" : 4956,
      "place" : "〒541-0045 大阪市中央区道修町１−７−１"
    },
    {
      "company" : "長谷川香料",
      "latitude" : 35.6743557,
      "longitude" : 139.7748,
      "code" : 4958,
      "place" : "〒104-8531 東京都中央区八丁堀４−６−１"
    },
    {
      "company" : "星光ＰＭＣ",
      "latitude" : 35.6887456,
      "longitude" : 139.7742607,
      "code" : 4963,
      "place" : "〒103-0023 東京都中央区日本橋本町３−３−６"
    },
    {
      "company" : "小林製薬",
      "latitude" : 34.6886494,
      "longitude" : 135.4993377,
      "code" : 4967,
      "place" : "〒541-0045 大阪市中央区道修町４−４−１０"
    },
    {
      "company" : "荒川化学工業",
      "latitude" : 34.6873719,
      "longitude" : 135.5088202,
      "code" : 4968,
      "place" : "〒541-0046 大阪市中央区平野町１−３−７"
    },
    {
      "company" : "メック",
      "latitude" : 34.7203299,
      "longitude" : 135.4180636,
      "code" : 4971,
      "place" : "〒660-0881 兵庫県尼崎市昭和通３−９５"
    },
    {
      "company" : "日本高純度化学",
      "latitude" : 35.7685085,
      "longitude" : 139.6544397,
      "code" : 4973,
      "place" : "〒179-0081 東京都練馬区北町３−１０−１８"
    },
    {
      "company" : "ＪＣＵ",
      "latitude" : 35.7133403,
      "longitude" : 139.7794844,
      "code" : 4975,
      "place" : "〒110-0015 東京都台東区東上野４−８−１"
    },
    {
      "company" : "新田ゼラチン",
      "latitude" : 34.5957537,
      "longitude" : 135.6205731,
      "code" : 4977,
      "place" : "〒581-0024 大阪府八尾市二俣２−２２"
    },
    {
      "company" : "アース製薬",
      "latitude" : 35.6942504,
      "longitude" : 139.7682192,
      "code" : 4985,
      "place" : "〒101-0048 東京都千代田区神田司町２−１２−１"
    },
    {
      "company" : "イハラケミカル工業",
      "latitude" : 35.7116595,
      "longitude" : 139.7682686,
      "code" : 4989,
      "place" : "〒110-0008 東京都台東区池之端１−４−２６"
    },
    {
      "company" : "北興化学工業",
      "latitude" : 35.6883484,
      "longitude" : 139.7712609,
      "code" : 4992,
      "place" : "〒103-8341 東京都中央区日本橋本石町４−４−２０"
    },
    {
      "company" : "大成ラミック",
      "latitude" : 36.0384709,
      "longitude" : 139.6424547,
      "code" : 4994,
      "place" : "〒349-0293 埼玉県白岡市下大崎８７３−１"
    },
    {
      "company" : "クミアイ化学工業",
      "latitude" : 35.7118817,
      "longitude" : 139.7682519,
      "code" : 4996,
      "place" : "〒110-8782 東京都台東区池之端１−４−２６"
    },
    {
      "company" : "日本農薬",
      "latitude" : 35.6773498,
      "longitude" : 139.7741083,
      "code" : 4997,
      "place" : "〒104-8386 東京都中央区京橋１−１９−８"
    },
    {
      "company" : "昭和シェル石油",
      "latitude" : 35.6286719,
      "longitude" : 139.7777679,
      "code" : 5002,
      "place" : "〒135-8074 東京都港区台場２−３−２"
    },
    {
      "company" : "コスモ石油",
      "latitude" : 35.6515162,
      "longitude" : 139.757685,
      "code" : 5007,
      "place" : "〒105-8528 東京都港区芝浦１−１−１"
    },
    {
      "company" : "富士興産",
      "latitude" : 35.6986584,
      "longitude" : 139.7903715,
      "code" : 5009,
      "place" : "〒111-0052 東京都台東区柳橋２−１９−６"
    },
    {
      "company" : "ニチレキ",
      "latitude" : 35.6942106,
      "longitude" : 139.7399322,
      "code" : 5011,
      "place" : "〒102-8222 東京都千代田区九段北４−３−２９"
    },
    {
      "company" : "東燃ゼネラル石油",
      "latitude" : 35.6303351,
      "longitude" : 139.7441231,
      "code" : 5012,
      "place" : "〒108-8005 東京都港区港南１−８−１５"
    },
    {
      "company" : "ユシロ化学工業",
      "latitude" : 35.5683919,
      "longitude" : 139.6955393,
      "code" : 5013,
      "place" : "〒146-8510 東京都大田区千鳥２−３４−１６"
    },
    {
      "company" : "ビーピー・カストロール",
      "latitude" : 35.6186917,
      "longitude" : 139.7319107,
      "code" : 5015,
      "place" : "〒141-0032 東京都品川区大崎１−１１−２"
    },
    {
      "company" : "富士石油",
      "latitude" : 35.6213113,
      "longitude" : 139.7501897,
      "code" : 5017,
      "place" : "〒140-0002 東京都品川区東品川２−５−８"
    },
    {
      "company" : "ＭＯＲＥＳＣＯ",
      "latitude" : 34.6564254,
      "longitude" : 135.2171404,
      "code" : 5018,
      "place" : "〒650-0047 神戸市中央区港島南町５−５−３"
    },
    {
      "company" : "出光興産",
      "latitude" : 35.6767022,
      "longitude" : 139.7608924,
      "code" : 5019,
      "place" : "〒100-8321 東京都千代田区丸の内３−１−１"
    },
    {
      "company" : "ＪＸホールディングス",
      "latitude" : 35.68438769999999,
      "longitude" : 139.7702583,
      "code" : 5020,
      "place" : "〒100-0004 東京都千代田区大手町２−６−３"
    },
    {
      "company" : "横浜ゴム",
      "latitude" : 35.6630925,
      "longitude" : 139.7529128,
      "code" : 5101,
      "place" : "〒105-8685 東京都港区新橋５−３６−１１"
    },
    {
      "company" : "東洋ゴム工業",
      "latitude" : 34.6899991,
      "longitude" : 135.4944603,
      "code" : 5105,
      "place" : "〒550-8661 大阪市西区江戸堀１−１７−１８"
    },
    {
      "company" : "ブリヂストン",
      "latitude" : 35.6788356,
      "longitude" : 139.7718889,
      "code" : 5108,
      "place" : "〒104-8340 東京都中央区京橋１−１０−１"
    },
    {
      "company" : "住友ゴム工業",
      "latitude" : 34.7009655,
      "longitude" : 135.2105984,
      "code" : 5110,
      "place" : "〒651-0072 神戸市中央区脇浜町３−６−９"
    },
    {
      "company" : "藤倉ゴム工業",
      "latitude" : 35.63219360000001,
      "longitude" : 139.7881421,
      "code" : 5121,
      "place" : "〒135-0063 東京都江東区有明３−５−７"
    },
    {
      "company" : "オカモト",
      "latitude" : 35.706471,
      "longitude" : 139.7624137,
      "code" : 5122,
      "place" : "〒113-8710 東京都文京区本郷３−２７−１２"
    },
    {
      "company" : "アキレス",
      "latitude" : 35.6862914,
      "longitude" : 139.7163011,
      "code" : 5142,
      "place" : "〒160-8885 東京都新宿区大京町２２−５"
    },
    {
      "company" : "フコク",
      "latitude" : 36.0023389,
      "longitude" : 139.5896807,
      "code" : 5185,
      "place" : "〒362-0003 埼玉県上尾市菅谷３−１０５"
    },
    {
      "company" : "ニッタ",
      "latitude" : 34.6676988,
      "longitude" : 135.4831037,
      "code" : 5186,
      "place" : "〒556-0022 大阪市浪速区桜川４−４−２６"
    },
    {
      "company" : "クリエートメディック",
      "latitude" : 35.5365298,
      "longitude" : 139.5830599,
      "code" : 5187,
      "place" : "〒224-0037 横浜市都筑区茅ヶ崎南２−５−２５"
    },
    {
      "company" : "東海ゴム工業",
      "latitude" : 35.2768593,
      "longitude" : 136.9406247,
      "code" : 5191,
      "place" : "〒485-8550 愛知県小牧市東３−１"
    },
    {
      "company" : "三ツ星ベルト",
      "latitude" : 34.6557328,
      "longitude" : 135.1564537,
      "code" : 5192,
      "place" : "〒653-0024 神戸市長田区浜添通４−１−２１"
    },
    {
      "company" : "バンドー化学",
      "latitude" : 34.6555976,
      "longitude" : 135.2148657,
      "code" : 5195,
      "place" : "〒650-0047 神戸市中央区港島南町４−６−６"
    },
    {
      "company" : "鬼怒川ゴム工業",
      "latitude" : 35.6562428,
      "longitude" : 140.1116825,
      "code" : 5196,
      "place" : "〒263-0005 千葉市稲毛区長沼町３３０"
    },
    {
      "company" : "旭硝子",
      "latitude" : 35.6827072,
      "longitude" : 139.7643254,
      "code" : 5201,
      "place" : "〒100-8405 東京都千代田区丸の内１−５−１"
    },
    {
      "company" : "日本板硝子",
      "latitude" : 35.6436251,
      "longitude" : 139.7421172,
      "code" : 5202,
      "place" : "〒108-6321 東京都港区三田３−５−２７"
    },
    {
      "company" : "石塚硝子",
      "latitude" : 35.2709287,
      "longitude" : 136.8634459,
      "code" : 5204,
      "place" : "〒482-8510 愛知県岩倉市川井町１８８０"
    },
    {
      "company" : "有沢製作所",
      "latitude" : 37.0950166,
      "longitude" : 138.2522893,
      "code" : 5208,
      "place" : "〒943-8610 新潟県上越市南本町１−５−５"
    },
    {
      "company" : "日本山村硝子",
      "latitude" : 34.71538830000001,
      "longitude" : 135.4052181,
      "code" : 5210,
      "place" : "〒660-8580 兵庫県尼崎市西向島町１５−１"
    },
    {
      "company" : "日本電気硝子",
      "latitude" : 34.9842527,
      "longitude" : 135.8972704,
      "code" : 5214,
      "place" : "〒520-8639 大津市晴嵐２−７−１"
    },
    {
      "company" : "オハラ",
      "latitude" : 35.5871208,
      "longitude" : 139.3574525,
      "code" : 5218,
      "place" : "〒252-5286 相模原市中央区小山１−１５−３０"
    },
    {
      "company" : "住友大阪セメント",
      "latitude" : 35.687825,
      "longitude" : 139.7323497,
      "code" : 5232,
      "place" : "〒102-8465 東京都千代田区六番町６−２８"
    },
    {
      "company" : "太平洋セメント",
      "latitude" : 35.6293385,
      "longitude" : 139.7793622,
      "code" : 5233,
      "place" : "〒135-8578 東京都港区台場２−３−５"
    },
    {
      "company" : "デイ・シイ",
      "latitude" : 35.5291504,
      "longitude" : 139.7026484,
      "code" : 5234,
      "place" : "〒210-0005 川崎市川崎区東田町８"
    },
    {
      "company" : "リゾートソリューション",
      "latitude" : 35.6949733,
      "longitude" : 139.6889837,
      "code" : 5261,
      "place" : "〒160-0023 東京都新宿区西新宿６−２４−１"
    },
    {
      "company" : "日本ヒューム",
      "latitude" : 35.6627969,
      "longitude" : 139.7541474,
      "code" : 5262,
      "place" : "〒105-0004 東京都港区新橋５−３３−１１"
    },
    {
      "company" : "日本コンクリート工業",
      "latitude" : 35.6383258,
      "longitude" : 139.7447032,
      "code" : 5269,
      "place" : "〒108-8560 東京都港区芝浦４−６−１４"
    },
    {
      "company" : "三谷セキサン",
      "latitude" : 36.057554,
      "longitude" : 136.2205219,
      "code" : 5273,
      "place" : "〒910-8571 福井市豊島１−３−１"
    },
    {
      "company" : "ジャパンパイル",
      "latitude" : 35.6854131,
      "longitude" : 139.787085,
      "code" : 5288,
      "place" : "〒103-0007 東京都中央区日本橋浜町２−１−１"
    },
    {
      "company" : "東海カーボン",
      "latitude" : 35.6730349,
      "longitude" : 139.7236206,
      "code" : 5301,
      "place" : "〒107-8636 東京都港区北青山１−２−３"
    },
    {
      "company" : "日本カーボン",
      "latitude" : 35.6773526,
      "longitude" : 139.7757221,
      "code" : 5302,
      "place" : "〒104-0032 東京都中央区八丁堀２−６−１"
    },
    {
      "company" : "東洋炭素",
      "latitude" : 34.6990952,
      "longitude" : 135.4919019,
      "code" : 5310,
      "place" : "〒530-0001 大阪市北区梅田３−３−１０"
    },
    {
      "company" : "ノリタケカンパニーリミテド",
      "latitude" : 35.1789875,
      "longitude" : 136.8806783,
      "code" : 5331,
      "place" : "〒451-8501 名古屋市西区則武新町３−１−３６"
    },
    {
      "company" : "ＴＯＴＯ",
      "latitude" : 33.8737075,
      "longitude" : 130.8731082,
      "code" : 5332,
      "place" : "〒802-8601 北九州市小倉北区中島２−１−１"
    },
    {
      "company" : "日本碍子",
      "latitude" : 35.1357505,
      "longitude" : 136.9178815,
      "code" : 5333,
      "place" : "〒467-8530 名古屋市瑞穂区須田町２−５６"
    },
    {
      "company" : "日本特殊陶業",
      "latitude" : 35.1378502,
      "longitude" : 136.9179592,
      "code" : 5334,
      "place" : "〒467-8525 名古屋市瑞穂区高辻町１４−１８"
    },
    {
      "company" : "ダントーホールディングス",
      "latitude" : 34.6990952,
      "longitude" : 135.4919019,
      "code" : 5337,
      "place" : "〒530-0001 大阪市北区梅田３−３−１０"
    },
    {
      "company" : "ＭＡＲＵＷＡ",
      "latitude" : 35.1973125,
      "longitude" : 137.0369875,
      "code" : 5344,
      "place" : "〒488-0044 愛知県尾張旭市南本地ケ原町３−８３"
    },
    {
      "company" : "品川リフラクトリーズ",
      "latitude" : 35.6852764,
      "longitude" : 139.7670557,
      "code" : 5351,
      "place" : "〒100-0004 東京都千代田区大手町２−２−１"
    },
    {
      "company" : "黒崎播磨",
      "latitude" : 33.872423,
      "longitude" : 130.7812132,
      "code" : 5352,
      "place" : "〒806-8586 北九州市八幡西区東浜町１−１"
    },
    {
      "company" : "ヨータイ",
      "latitude" : 34.4563147,
      "longitude" : 135.3400515,
      "code" : 5357,
      "place" : "〒597-0093 大阪府貝塚市二色中町８−１"
    },
    {
      "company" : "イソライト工業",
      "latitude" : 34.6931156,
      "longitude" : 135.4935985,
      "code" : 5358,
      "place" : "〒530-6108 大阪市北区中之島３−３−２３"
    },
    {
      "company" : "東京窯業",
      "latitude" : 35.3186736,
      "longitude" : 137.1305353,
      "code" : 5363,
      "place" : "〒507-8607 岐阜県多治見市大畑町３−１"
    },
    {
      "company" : "ニッカトー",
      "latitude" : 34.5929159,
      "longitude" : 135.4906135,
      "code" : 5367,
      "place" : "〒590-0001 堺市堺区遠里小野町３−２−２４"
    },
    {
      "company" : "フジミインコーポレーテッド",
      "latitude" : 35.2073551,
      "longitude" : 136.8614715,
      "code" : 5384,
      "place" : "〒452-8502 愛知県清須市西枇杷島町地領２−１−１"
    },
    {
      "company" : "エーアンドエーマテリアル",
      "latitude" : 35.5101507,
      "longitude" : 139.680537,
      "code" : 5391,
      "place" : "〒230-8511 横浜市鶴見区鶴見中央２−５−５"
    },
    {
      "company" : "ニチアス",
      "latitude" : 35.6782608,
      "longitude" : 139.7750638,
      "code" : 5393,
      "place" : "〒104-8555 東京都中央区八丁堀１−６−１"
    },
    {
      "company" : "新日鐵住金",
      "latitude" : 35.6791131,
      "longitude" : 139.7631367,
      "code" : 5401,
      "place" : "〒100-8071 東京都千代田区丸の内２−６−１"
    },
    {
      "company" : "神戸製鋼所",
      "latitude" : 34.6983325,
      "longitude" : 135.2098486,
      "code" : 5406,
      "place" : "〒651-8585 神戸市中央区脇浜海岸通２−２−４"
    },
    {
      "company" : "中山製鋼所",
      "latitude" : 34.6292473,
      "longitude" : 135.4677007,
      "code" : 5408,
      "place" : "〒551-8551 大阪市大正区船町１−１−６６"
    },
    {
      "company" : "合同製鐵",
      "latitude" : 34.6951207,
      "longitude" : 135.4931047,
      "code" : 5410,
      "place" : "〒530-0004 大阪市北区堂島浜２−２−８"
    },
    {
      "company" : "ジェイ　エフ　イー　ホールディングス",
      "latitude" : 35.6704,
      "longitude" : 139.7543319,
      "code" : 5411,
      "place" : "〒100-0011 東京都千代田区内幸町２−２−３"
    },
    {
      "company" : "日新製鋼ホールディングス",
      "latitude" : 35.6766301,
      "longitude" : 139.7621674,
      "code" : 5413,
      "place" : "〒100-8366 東京都千代田区丸の内３−４−１"
    },
    {
      "company" : "東京製鐵",
      "latitude" : 35.6714296,
      "longitude" : 139.7447256,
      "code" : 5423,
      "place" : "〒100-0013 東京都千代田区霞が関３−７−１"
    },
    {
      "company" : "共英製鋼",
      "latitude" : 34.6952513,
      "longitude" : 135.4962045,
      "code" : 5440,
      "place" : "〒530-0004 大阪市北区堂島浜１−４−１６"
    },
    {
      "company" : "大和工業",
      "latitude" : 34.784463,
      "longitude" : 134.6055478,
      "code" : 5444,
      "place" : "〒671-1192 兵庫県姫路市大津区吉美３８０"
    },
    {
      "company" : "東京鐵鋼",
      "latitude" : 35.7002535,
      "longitude" : 139.7454641,
      "code" : 5445,
      "place" : "〒102-0071 東京都千代田区富士見２−７−２"
    },
    {
      "company" : "大阪製鐵",
      "latitude" : 34.6882467,
      "longitude" : 135.5013792,
      "code" : 5449,
      "place" : "〒541-0045 大阪市中央区道修町３−６−１"
    },
    {
      "company" : "淀川製鋼所",
      "latitude" : 34.6830306,
      "longitude" : 135.5001961,
      "code" : 5451,
      "place" : "〒541-0054 大阪市中央区南本町４−１−１"
    },
    {
      "company" : "東洋鋼鈑",
      "latitude" : 35.6895389,
      "longitude" : 139.7379103,
      "code" : 5453,
      "place" : "〒102-8447 東京都千代田区四番町２−１２"
    },
    {
      "company" : "丸一鋼管",
      "latitude" : 34.6753174,
      "longitude" : 135.4877114,
      "code" : 5463,
      "place" : "〒550-0014 大阪市西区北堀江３−９−１０"
    },
    {
      "company" : "モリ工業",
      "latitude" : 34.6709374,
      "longitude" : 135.4997465,
      "code" : 5464,
      "place" : "〒542-0086 大阪市中央区西心斎橋２−２−３"
    },
    {
      "company" : "大同特殊鋼",
      "latitude" : 35.1730393,
      "longitude" : 136.9091479,
      "code" : 5471,
      "place" : "〒461-8581 名古屋市東区東桜１−１−１０"
    },
    {
      "company" : "日本高周波鋼業",
      "latitude" : 35.6931452,
      "longitude" : 139.7786964,
      "code" : 5476,
      "place" : "〒101-0032 東京都千代田区岩本町１−１０−５"
    },
    {
      "company" : "日本冶金工業",
      "latitude" : 35.6780968,
      "longitude" : 139.770614,
      "code" : 5480,
      "place" : "〒104-8365 東京都中央区京橋１−５−８"
    },
    {
      "company" : "山陽特殊製鋼",
      "latitude" : 34.7879187,
      "longitude" : 134.6729629,
      "code" : 5481,
      "place" : "〒672-8677 兵庫県姫路市飾磨区中島３００７"
    },
    {
      "company" : "愛知製鋼",
      "latitude" : 35.0424018,
      "longitude" : 136.9011047,
      "code" : 5482,
      "place" : "〒476-8666 愛知県東海市荒尾町ワノ割１"
    },
    {
      "company" : "日立金属",
      "latitude" : 35.649922,
      "longitude" : 139.7569018,
      "code" : 5486,
      "place" : "〒105-8614 東京都港区芝浦１−２−１"
    },
    {
      "company" : "日本金属",
      "latitude" : 35.6462888,
      "longitude" : 139.7454001,
      "code" : 5491,
      "place" : "〒108-0014 東京都港区芝５−３０−７"
    },
    {
      "company" : "大平洋金属",
      "latitude" : 35.6862984,
      "longitude" : 139.7642197,
      "code" : 5541,
      "place" : "〒100-0004 東京都千代田区大手町１−６−１"
    },
    {
      "company" : "日本電工",
      "latitude" : 35.6823991,
      "longitude" : 139.7712778,
      "code" : 5563,
      "place" : "〒103-8282 東京都中央区八重洲１−４−１６"
    },
    {
      "company" : "栗本鐵工所",
      "latitude" : 34.6731594,
      "longitude" : 135.4955746,
      "code" : 5602,
      "place" : "〒550-8580 大阪市西区北堀江１−１２−１９"
    },
    {
      "company" : "虹技",
      "latitude" : 34.7901817,
      "longitude" : 134.6171271,
      "code" : 5603,
      "place" : "〒671-1132 兵庫県姫路市大津区勘兵衛町４−１"
    },
    {
      "company" : "日本鋳鉄管",
      "latitude" : 36.06190650000001,
      "longitude" : 139.6387544,
      "code" : 5612,
      "place" : "〒346-0193 埼玉県久喜市菖蒲町昭和沼１"
    },
    {
      "company" : "日本製鋼所",
      "latitude" : 35.6193971,
      "longitude" : 139.7308079,
      "code" : 5631,
      "place" : "〒141-0032 東京都品川区大崎１−１１−１"
    },
    {
      "company" : "三菱製鋼",
      "latitude" : 35.6557828,
      "longitude" : 139.7804724,
      "code" : 5632,
      "place" : "〒104-8550 東京都中央区晴海３−２−２２"
    },
    {
      "company" : "日亜鋼業",
      "latitude" : 34.7151851,
      "longitude" : 135.3958772,
      "code" : 5658,
      "place" : "〒660-0083 兵庫県尼崎市道意町６−７４"
    },
    {
      "company" : "日本精線",
      "latitude" : 34.6892904,
      "longitude" : 135.4983482,
      "code" : 5659,
      "place" : "〒541-0043 大阪市中央区高麗橋４−１−１"
    },
    {
      "company" : "大紀アルミニウム工業所",
      "latitude" : 34.6903046,
      "longitude" : 135.4930632,
      "code" : 5702,
      "place" : "〒550-0001 大阪市西区土佐堀１−４−８"
    },
    {
      "company" : "日本軽金属ホールディングス",
      "latitude" : 35.6221001,
      "longitude" : 139.7499841,
      "code" : 5703,
      "place" : "〒140-8628 東京都品川区東品川２−２−２０"
    },
    {
      "company" : "三井金属鉱業",
      "latitude" : 35.6193971,
      "longitude" : 139.7308079,
      "code" : 5706,
      "place" : "〒141-8584 東京都品川区大崎１−１１−１"
    },
    {
      "company" : "東邦亜鉛",
      "latitude" : 35.6864988,
      "longitude" : 139.7771384,
      "code" : 5707,
      "place" : "〒103-8437 東京都中央区日本橋本町１−６−１"
    },
    {
      "company" : "三菱マテリアル",
      "latitude" : 35.6887564,
      "longitude" : 139.7635141,
      "code" : 5711,
      "place" : "〒100-8117 東京都千代田区大手町１−３−２"
    },
    {
      "company" : "住友金属鉱山",
      "latitude" : 35.6632843,
      "longitude" : 139.7561459,
      "code" : 5713,
      "place" : "〒105-8716 東京都港区新橋５−１１−３"
    },
    {
      "company" : "ＤＯＷＡホールディングス",
      "latitude" : 35.7005247,
      "longitude" : 139.7725077,
      "code" : 5714,
      "place" : "〒101-0021 東京都千代田区外神田４−１４−１"
    },
    {
      "company" : "古河機械金属",
      "latitude" : 35.6801158,
      "longitude" : 139.7626728,
      "code" : 5715,
      "place" : "〒100-8370 東京都千代田区丸の内２−２−３"
    },
    {
      "company" : "エス・サイエンス",
      "latitude" : 35.6677811,
      "longitude" : 139.7617565,
      "code" : 5721,
      "place" : "〒104-0061 東京都中央区銀座８−９−１３"
    },
    {
      "company" : "大阪チタニウムテクノロジーズ",
      "latitude" : 34.70648620000001,
      "longitude" : 135.4006023,
      "code" : 5726,
      "place" : "〒660-8533 兵庫県尼崎市東浜町１"
    },
    {
      "company" : "東邦チタニウム",
      "latitude" : 35.3386285,
      "longitude" : 139.4054938,
      "code" : 5727,
      "place" : "〒253-8510 神奈川県茅ヶ崎市茅ヶ崎３−３−５"
    },
    {
      "company" : "ＵＡＣＪ",
      "latitude" : 35.6871789,
      "longitude" : 139.765453,
      "code" : 5741,
      "place" : "〒100-0004 東京都千代田区大手町１−７−２"
    },
    {
      "company" : "古河電気工業",
      "latitude" : 35.6801158,
      "longitude" : 139.7626728,
      "code" : 5801,
      "place" : "〒100-8322 東京都千代田区丸の内２−２−３"
    },
    {
      "company" : "住友電気工業",
      "latitude" : 34.6920545,
      "longitude" : 135.4993515,
      "code" : 5802,
      "place" : "〒541-0041 大阪市中央区北浜４−５−３３"
    },
    {
      "company" : "フジクラ",
      "latitude" : 35.6682624,
      "longitude" : 139.8035781,
      "code" : 5803,
      "place" : "〒135-8512 東京都江東区木場１−５−１"
    },
    {
      "company" : "昭和電線ホールディングス",
      "latitude" : 35.6646893,
      "longitude" : 139.7433109,
      "code" : 5805,
      "place" : "〒105-6013 東京都港区虎ノ門４−３−１"
    },
    {
      "company" : "東京特殊電線",
      "latitude" : 35.662562,
      "longitude" : 139.7527073,
      "code" : 5807,
      "place" : "〒105-0004 東京都港区新橋６−１−１１"
    },
    {
      "company" : "タツタ電線",
      "latitude" : 34.66106,
      "longitude" : 135.6116145,
      "code" : 5809,
      "place" : "〒578-8585 大阪府東大阪市岩田町２−３−１"
    },
    {
      "company" : "沖電線",
      "latitude" : 35.5787013,
      "longitude" : 139.6421297,
      "code" : 5815,
      "place" : "〒211-8585 川崎市中原区下小田中２−１２−８"
    },
    {
      "company" : "カナレ電気",
      "latitude" : 35.1203201,
      "longitude" : 137.0637345,
      "code" : 5819,
      "place" : "〒470-0112 愛知県日進市藤枝町奥廻間１２０１−１０"
    },
    {
      "company" : "平河ヒューテック",
      "latitude" : 35.5881509,
      "longitude" : 139.7327621,
      "code" : 5821,
      "place" : "〒140-8551 東京都品川区南大井３−２８−１０"
    },
    {
      "company" : "リョービ",
      "latitude" : 34.57404289999999,
      "longitude" : 133.2260183,
      "code" : 5851,
      "place" : "〒726-8628 広島県府中市目崎町７６２"
    },
    {
      "company" : "アサヒホールディングス",
      "latitude" : 34.695113,
      "longitude" : 135.1934779,
      "code" : 5857,
      "place" : "〒650-0001 神戸市中央区加納町４−４−１７"
    },
    {
      "company" : "東洋製罐グループホールディングス",
      "latitude" : 35.6243437,
      "longitude" : 139.7295328,
      "code" : 5901,
      "place" : "〒141-8627 東京都品川区東五反田２−１８−１"
    },
    {
      "company" : "ホッカンホールディングス",
      "latitude" : 35.6805822,
      "longitude" : 139.7620932,
      "code" : 5902,
      "place" : "〒100-0005 東京都千代田区丸の内２−２−２"
    },
    {
      "company" : "コロナ",
      "latitude" : 37.6190814,
      "longitude" : 138.9646921,
      "code" : 5909,
      "place" : "〒955-8510 新潟県三条市東新保７−７"
    },
    {
      "company" : "横河ブリッジホールディングス",
      "latitude" : 35.6419948,
      "longitude" : 139.7452753,
      "code" : 5911,
      "place" : "〒108-0023 東京都港区芝浦４−４−４４"
    },
    {
      "company" : "日本橋梁",
      "latitude" : 34.6890354,
      "longitude" : 135.4962241,
      "code" : 5912,
      "place" : "〒550-0002 大阪市西区江戸堀１−９−１"
    },
    {
      "company" : "駒井ハルテック",
      "latitude" : 35.7069657,
      "longitude" : 139.7723852,
      "code" : 5915,
      "place" : "〒110-8547 東京都台東区上野１−１９−１０"
    },
    {
      "company" : "高田機工",
      "latitude" : 34.6617913,
      "longitude" : 135.5017994,
      "code" : 5923,
      "place" : "〒556-0011 大阪市浪速区難波中２−１０−７０"
    },
    {
      "company" : "三和ホールディングス",
      "latitude" : 35.6919012,
      "longitude" : 139.6939116,
      "code" : 5929,
      "place" : "〒163-0478 東京都新宿区西新宿２−１−１"
    },
    {
      "company" : "文化シヤッター",
      "latitude" : 35.7129893,
      "longitude" : 139.752889,
      "code" : 5930,
      "place" : "〒113-8535 東京都文京区西片１−１７−３"
    },
    {
      "company" : "三協立山",
      "latitude" : 36.7513046,
      "longitude" : 136.9904237,
      "code" : 5932,
      "place" : "〒933-8610 富山県高岡市早川７０"
    },
    {
      "company" : "東洋シヤッター",
      "latitude" : 34.677213,
      "longitude" : 135.5052157,
      "code" : 5936,
      "place" : "〒542-0081 大阪市中央区南船場２−３−２"
    },
    {
      "company" : "ＬＩＸＩＬグループ",
      "latitude" : 35.671183,
      "longitude" : 139.7471992,
      "code" : 5938,
      "place" : "〒100-6036 東京都千代田区霞が関３−２−５"
    },
    {
      "company" : "日本フイルコン",
      "latitude" : 35.6513321,
      "longitude" : 139.491278,
      "code" : 5942,
      "place" : "〒206-8577 東京都稲城市大丸２２２０"
    },
    {
      "company" : "ノーリツ",
      "latitude" : 34.6899802,
      "longitude" : 135.1941586,
      "code" : 5943,
      "place" : "〒650-0033 神戸市中央区江戸町９３"
    },
    {
      "company" : "長府製作所",
      "latitude" : 34.0255022,
      "longitude" : 131.01146,
      "code" : 5946,
      "place" : "〒752-8555 山口県下関市長府扇町２−１"
    },
    {
      "company" : "リンナイ",
      "latitude" : 35.1579848,
      "longitude" : 136.8816119,
      "code" : 5947,
      "place" : "〒454-0802 名古屋市中川区福住町２−２６"
    },
    {
      "company" : "ユニプレス",
      "latitude" : 35.5053754,
      "longitude" : 139.6119992,
      "code" : 5949,
      "place" : "〒222-0033 横浜市港北区新横浜１−１９−２０"
    },
    {
      "company" : "ダイニチ工業",
      "latitude" : 37.8169669,
      "longitude" : 139.0213054,
      "code" : 5951,
      "place" : "〒950-1295 新潟市南区北田中７８０−６"
    },
    {
      "company" : "日東精工",
      "latitude" : 35.3043323,
      "longitude" : 135.2444631,
      "code" : 5957,
      "place" : "〒623-0054 京都府綾部市井倉町梅ヶ畑２０"
    },
    {
      "company" : "三洋工業",
      "latitude" : 35.6960176,
      "longitude" : 139.8280864,
      "code" : 5958,
      "place" : "〒136-8502 東京都江東区亀戸６−２０−７"
    },
    {
      "company" : "岡部",
      "latitude" : 35.7147519,
      "longitude" : 139.8127179,
      "code" : 5959,
      "place" : "〒131-8505 東京都墨田区向島４−２１−１５"
    },
    {
      "company" : "中国工業",
      "latitude" : 34.2292242,
      "longitude" : 132.6224172,
      "code" : 5974,
      "place" : "〒737-0192 広島県呉市広名田１−３−１"
    },
    {
      "company" : "東プレ",
      "latitude" : 35.67857190000001,
      "longitude" : 139.7743499,
      "code" : 5975,
      "place" : "〒103-0027 東京都中央区日本橋３−１２−２"
    },
    {
      "company" : "高周波熱錬",
      "latitude" : 35.6234382,
      "longitude" : 139.7292718,
      "code" : 5976,
      "place" : "〒141-8639 東京都品川区東五反田２−１７−１"
    },
    {
      "company" : "東京製綱",
      "latitude" : 35.679705,
      "longitude" : 139.7724278,
      "code" : 5981,
      "place" : "〒103-8306 東京都中央区日本橋３−６−２"
    },
    {
      "company" : "サンコール",
      "latitude" : 35.0022473,
      "longitude" : 135.6976414,
      "code" : 5985,
      "place" : "〒615-8555 京都市右京区梅津西浦町１４"
    },
    {
      "company" : "モリテック　スチール",
      "latitude" : 34.6757685,
      "longitude" : 135.514018,
      "code" : 5986,
      "place" : "〒542-0012 大阪市中央区谷町６−１８−３１"
    },
    {
      "company" : "パイオラックス",
      "latitude" : 35.4410442,
      "longitude" : 139.6004071,
      "code" : 5988,
      "place" : "〒240-0023 横浜市保土ケ谷区岩井町５１"
    },
    {
      "company" : "日本発條",
      "latitude" : 35.3428274,
      "longitude" : 139.6496698,
      "code" : 5991,
      "place" : "〒236-0004 横浜市金沢区福浦３−１０"
    },
    {
      "company" : "中央発條",
      "latitude" : 35.0798485,
      "longitude" : 136.9443745,
      "code" : 5992,
      "place" : "〒458-8505 名古屋市緑区鳴海町字上汐田６８"
    },
    {
      "company" : "アドバネクス",
      "latitude" : 35.7381339,
      "longitude" : 139.7593544,
      "code" : 5998,
      "place" : "〒114-8581 東京都北区田端６−１−１"
    },
    {
      "company" : "三浦工業",
      "latitude" : 33.8973647,
      "longitude" : 132.7498461,
      "code" : 6005,
      "place" : "〒799-2696 松山市堀江町７"
    },
    {
      "company" : "タクマ",
      "latitude" : 34.72676,
      "longitude" : 135.4261932,
      "code" : 6013,
      "place" : "〒660-0806 兵庫県尼崎市金楽寺町２−２−３３"
    },
    {
      "company" : "リブセンス",
      "latitude" : 35.6343004,
      "longitude" : 139.7146449,
      "code" : 6054,
      "place" : "〒141-0021 東京都品川区上大崎２−２５−２"
    },
    {
      "company" : "ジャパンマテリアル",
      "latitude" : 35.0412876,
      "longitude" : 136.5340547,
      "code" : 6055,
      "place" : "〒510-1311 三重県三重郡菰野町永井３０９８−２２"
    },
    {
      "company" : "ツガミ",
      "latitude" : 35.6899035,
      "longitude" : 139.7811436,
      "code" : 6101,
      "place" : "〒103-0006 東京都中央区日本橋富沢町１２−２０"
    },
    {
      "company" : "オークマ",
      "latitude" : 35.3338241,
      "longitude" : 136.9191958,
      "code" : 6103,
      "place" : "〒480-0193 愛知県丹羽郡大口町下小口５−２５−１"
    },
    {
      "company" : "東芝機械",
      "latitude" : 35.1136887,
      "longitude" : 138.8721637,
      "code" : 6104,
      "place" : "〒410-8510 静岡県沼津市大岡２０６８−３"
    },
    {
      "company" : "アマダ",
      "latitude" : 35.4196226,
      "longitude" : 139.3385095,
      "code" : 6113,
      "place" : "〒259-1196 神奈川県伊勢原市石田２００"
    },
    {
      "company" : "アイダエンジニアリング",
      "latitude" : 35.5873683,
      "longitude" : 139.3512503,
      "code" : 6118,
      "place" : "〒252-5181 相模原市緑区大山町２−１０"
    },
    {
      "company" : "滝澤鉄工所",
      "latitude" : 34.6414722,
      "longitude" : 133.8362131,
      "code" : 6121,
      "place" : "〒701-0164 岡山市北区撫川９８３"
    },
    {
      "company" : "富士機械製造",
      "latitude" : 35.0040908,
      "longitude" : 137.0554516,
      "code" : 6134,
      "place" : "〒472-8686 愛知県知立市山町茶碓山１９"
    },
    {
      "company" : "牧野フライス製作所",
      "latitude" : 35.6146961,
      "longitude" : 139.6779349,
      "code" : 6135,
      "place" : "〒152-8578 東京都目黒区中根２−３−１９"
    },
    {
      "company" : "オーエスジー",
      "latitude" : 34.835929,
      "longitude" : 137.4045945,
      "code" : 6136,
      "place" : "〒442-8543 愛知県豊川市本野ヶ原３−２２"
    },
    {
      "company" : "ダイジェット工業",
      "latitude" : 34.6331318,
      "longitude" : 135.5694886,
      "code" : 6138,
      "place" : "〒547-0002 大阪市平野区加美東２−１−１８"
    },
    {
      "company" : "旭ダイヤモンド工業",
      "latitude" : 35.6812494,
      "longitude" : 139.7347863,
      "code" : 6140,
      "place" : "〒102-0094 東京都千代田区紀尾井町４−１"
    },
    {
      "company" : "ＤＭＧ森精機",
      "latitude" : 35.1740661,
      "longitude" : 136.8826142,
      "code" : 6141,
      "place" : "〒450-0002 名古屋市中村区名駅２−３５−１６"
    },
    {
      "company" : "ディスコ",
      "latitude" : 35.58683440000001,
      "longitude" : 139.7340427,
      "code" : 6146,
      "place" : "〒143-8580 東京都大田区大森北２−１３−１１"
    },
    {
      "company" : "日東工器",
      "latitude" : 35.5828454,
      "longitude" : 139.7019458,
      "code" : 6151,
      "place" : "〒146-8555 東京都大田区仲池上２−９−４"
    },
    {
      "company" : "豊田自動織機",
      "latitude" : 34.9938933,
      "longitude" : 136.9998236,
      "code" : 6201,
      "place" : "〒448-8671 愛知県刈谷市豊田町２−１"
    },
    {
      "company" : "豊和工業",
      "latitude" : 35.19864760000001,
      "longitude" : 136.8480201,
      "code" : 6203,
      "place" : "〒452-8601 愛知県清須市須ケ口１９００−１"
    },
    {
      "company" : "大阪機工",
      "latitude" : 34.8008014,
      "longitude" : 135.4150762,
      "code" : 6205,
      "place" : "〒664-0831 兵庫県伊丹市北伊丹８−１０"
    },
    {
      "company" : "石川製作所",
      "latitude" : 36.4962889,
      "longitude" : 136.5236903,
      "code" : 6208,
      "place" : "〒924-0051 石川県白山市福留町２００"
    },
    {
      "company" : "東洋機械金属",
      "latitude" : 34.7159327,
      "longitude" : 134.8909289,
      "code" : 6210,
      "place" : "〒674-0091 兵庫県明石市二見町福里５２３−１"
    },
    {
      "company" : "津田駒工業",
      "latitude" : 36.5548092,
      "longitude" : 136.6426063,
      "code" : 6217,
      "place" : "〒921-8650 金沢市野町５−１８−１８"
    },
    {
      "company" : "エンシュウ",
      "latitude" : 34.6898696,
      "longitude" : 137.6765115,
      "code" : 6218,
      "place" : "〒432-8522 浜松市南区高塚町４８８８"
    },
    {
      "company" : "島精機製作所",
      "latitude" : 34.2091784,
      "longitude" : 135.2024339,
      "code" : 6222,
      "place" : "〒641-8511 和歌山市坂田８５"
    },
    {
      "company" : "日阪製作所",
      "latitude" : 34.6890243,
      "longitude" : 135.499871,
      "code" : 6247,
      "place" : "〒541-0044 大阪市中央区伏見町４−２−１４"
    },
    {
      "company" : "やまびこ",
      "latitude" : 35.7774037,
      "longitude" : 139.3132793,
      "code" : 6250,
      "place" : "〒198-8760 東京都青梅市末広町１−７−２"
    },
    {
      "company" : "ペガサスミシン製造",
      "latitude" : 34.7003114,
      "longitude" : 135.4794003,
      "code" : 6262,
      "place" : "〒553-0002 大阪市福島区鷺洲５−７−２"
    },
    {
      "company" : "ナブテスコ",
      "latitude" : 35.6803456,
      "longitude" : 139.7402966,
      "code" : 6268,
      "place" : "〒102-0093 東京都千代田区平河町２−７−９"
    },
    {
      "company" : "三井海洋開発",
      "latitude" : 35.6811571,
      "longitude" : 139.7724763,
      "code" : 6269,
      "place" : "〒103-0027 東京都中央区日本橋２−３−１０"
    },
    {
      "company" : "レオン自動機",
      "latitude" : 36.6027448,
      "longitude" : 139.8573543,
      "code" : 6272,
      "place" : "〒320-0071 宇都宮市野沢町２−３"
    },
    {
      "company" : "ＳＭＣ",
      "latitude" : 35.7005247,
      "longitude" : 139.7725077,
      "code" : 6273,
      "place" : "〒101-0021 東京都千代田区外神田４−１４−１"
    },
    {
      "company" : "新川",
      "latitude" : 35.7403823,
      "longitude" : 139.378695,
      "code" : 6274,
      "place" : "〒208-8585 東京都武蔵村山市伊奈平２−５１−１"
    },
    {
      "company" : "ホソカワミクロン",
      "latitude" : 34.8394467,
      "longitude" : 135.6950259,
      "code" : 6277,
      "place" : "〒573-1132 大阪府枚方市招提田近１−９"
    },
    {
      "company" : "ユニオンツール",
      "latitude" : 35.590345,
      "longitude" : 139.7300566,
      "code" : 6278,
      "place" : "〒140-0013 東京都品川区南大井６−１７−１"
    },
    {
      "company" : "オイレス工業",
      "latitude" : 35.3908324,
      "longitude" : 139.4514498,
      "code" : 6282,
      "place" : "〒252-0811 神奈川県藤沢市桐原町８"
    },
    {
      "company" : "日精エー・エス・ビー機械",
      "latitude" : 36.3428151,
      "longitude" : 138.4485504,
      "code" : 6284,
      "place" : "〒384-8585 長野県小諸市甲４５８６−３"
    },
    {
      "company" : "サトーホールディングス",
      "latitude" : 35.6329477,
      "longitude" : 139.7121091,
      "code" : 6287,
      "place" : "〒153-0064 東京都目黒区下目黒１−７−１"
    },
    {
      "company" : "日本エアーテック",
      "latitude" : 35.72043439999999,
      "longitude" : 139.7864502,
      "code" : 6291,
      "place" : "〒110-8686 東京都台東区入谷１−１４−９"
    },
    {
      "company" : "日精樹脂工業",
      "latitude" : 36.4350761,
      "longitude" : 138.1914263,
      "code" : 6293,
      "place" : "〒389-0693 長野県埴科郡坂城町大字南条２１１０"
    },
    {
      "company" : "ワイエイシイ",
      "latitude" : 35.7182126,
      "longitude" : 139.3729017,
      "code" : 6298,
      "place" : "〒196-0021 東京都昭島市武蔵野３−１１−１０"
    },
    {
      "company" : "小松製作所",
      "latitude" : 35.6709662,
      "longitude" : 139.7420302,
      "code" : 6301,
      "place" : "〒107-8414 東京都港区赤坂２−３−６"
    },
    {
      "company" : "住友重機械工業",
      "latitude" : 35.618461,
      "longitude" : 139.7276249,
      "code" : 6302,
      "place" : "〒141-6025 東京都品川区大崎２−１−１"
    },
    {
      "company" : "日立建機",
      "latitude" : 35.7055345,
      "longitude" : 139.7460786,
      "code" : 6305,
      "place" : "〒112-8563 東京都文京区後楽２−５−１"
    },
    {
      "company" : "日工",
      "latitude" : 34.6755726,
      "longitude" : 134.9252508,
      "code" : 6306,
      "place" : "〒674-8585 兵庫県明石市大久保町江井島１０１３−１"
    },
    {
      "company" : "巴工業",
      "latitude" : 35.6225491,
      "longitude" : 139.7228535,
      "code" : 6309,
      "place" : "〒141-0032 東京都品川区大崎１−２−２"
    },
    {
      "company" : "井関農機",
      "latitude" : 35.733585,
      "longitude" : 139.7700592,
      "code" : 6310,
      "place" : "〒116-8541 東京都荒川区西日暮里５−３−１４"
    },
    {
      "company" : "ＴＯＷＡ",
      "latitude" : 34.9699815,
      "longitude" : 135.7456315,
      "code" : 6315,
      "place" : "〒601-8105 京都市南区上鳥羽上調子町５"
    },
    {
      "company" : "丸山製作所",
      "latitude" : 35.6898787,
      "longitude" : 139.7689554,
      "code" : 6316,
      "place" : "〒101-0047 東京都千代田区内神田３−４−１５"
    },
    {
      "company" : "北川鉄工所",
      "latitude" : 34.5729797,
      "longitude" : 133.242184,
      "code" : 6317,
      "place" : "〒726-8610 広島県府中市元町７７−１"
    },
    {
      "company" : "シンニッタン",
      "latitude" : 35.5260203,
      "longitude" : 139.7035206,
      "code" : 6319,
      "place" : "〒210-0014 川崎市川崎区貝塚１−１３−１"
    },
    {
      "company" : "クボタ",
      "latitude" : 34.6586083,
      "longitude" : 135.5009523,
      "code" : 6326,
      "place" : "〒556-8601 大阪市浪速区敷津東１−２−４７"
    },
    {
      "company" : "荏原実業",
      "latitude" : 35.6676312,
      "longitude" : 139.7651619,
      "code" : 6328,
      "place" : "〒104-8174 東京都中央区銀座７−１４−１"
    },
    {
      "company" : "東洋エンジニアリング",
      "latitude" : 35.6639538,
      "longitude" : 140.010847,
      "code" : 6330,
      "place" : "〒275-0024 千葉県習志野市茜浜２−８−１"
    },
    {
      "company" : "三菱化工機",
      "latitude" : 35.4939632,
      "longitude" : 139.7109876,
      "code" : 6331,
      "place" : "〒210-8560 川崎市川崎区大川町２−１"
    },
    {
      "company" : "月島機械",
      "latitude" : 35.6652209,
      "longitude" : 139.784483,
      "code" : 6332,
      "place" : "〒104-0051 東京都中央区佃２−１７−１５"
    },
    {
      "company" : "帝国電機製作所",
      "latitude" : 34.9217246,
      "longitude" : 134.5397668,
      "code" : 6333,
      "place" : "〒679-4395 兵庫県たつの市新宮町平野６０"
    },
    {
      "company" : "東京機械製作所",
      "latitude" : 35.647397,
      "longitude" : 139.7454112,
      "code" : 6335,
      "place" : "〒108-8375 東京都港区芝５−２６−２４"
    },
    {
      "company" : "新東工業",
      "latitude" : 35.169706,
      "longitude" : 136.8967768,
      "code" : 6339,
      "place" : "〒460-0003 名古屋市中区錦１−１１−１１"
    },
    {
      "company" : "澁谷工業",
      "latitude" : 36.5713153,
      "longitude" : 136.634795,
      "code" : 6340,
      "place" : "〒920-8681 金沢市大豆田本町甲５８"
    },
    {
      "company" : "アイチ　コーポレーション",
      "latitude" : 35.9750416,
      "longitude" : 139.5459003,
      "code" : 6345,
      "place" : "〒362-8550 埼玉県上尾市大字領家山下１１５２−１０"
    },
    {
      "company" : "小森コーポレーション",
      "latitude" : 35.709355,
      "longitude" : 139.8057159,
      "code" : 6349,
      "place" : "〒130-8666 東京都墨田区吾妻橋３−１１−１"
    },
    {
      "company" : "鶴見製作所",
      "latitude" : 34.703282,
      "longitude" : 135.5647074,
      "code" : 6351,
      "place" : "〒538-8585 大阪市鶴見区鶴見４−１６−４０"
    },
    {
      "company" : "住友精密工業",
      "latitude" : 34.7297874,
      "longitude" : 135.4204242,
      "code" : 6355,
      "place" : "〒660-0891 兵庫県尼崎市扶桑町１−１０"
    },
    {
      "company" : "酒井重工業",
      "latitude" : 35.6586321,
      "longitude" : 139.7545866,
      "code" : 6358,
      "place" : "〒105-0012 東京都港区芝大門１−４−８"
    },
    {
      "company" : "荏原製作所",
      "latitude" : 35.5522313,
      "longitude" : 139.752277,
      "code" : 6361,
      "place" : "〒144-8510 東京都大田区羽田旭町１１−１"
    },
    {
      "company" : "石井鐵工所",
      "latitude" : 35.66198809999999,
      "longitude" : 139.7789867,
      "code" : 6362,
      "place" : "〒104-0052 東京都中央区月島３−２６−１１"
    },
    {
      "company" : "酉島製作所",
      "latitude" : 34.8391619,
      "longitude" : 135.5876718,
      "code" : 6363,
      "place" : "〒569-8660 大阪府高槻市宮田町１−１−８"
    },
    {
      "company" : "千代田化工建設",
      "latitude" : 35.45874209999999,
      "longitude" : 139.6292617,
      "code" : 6366,
      "place" : "〒220-8765 横浜市西区みなとみらい４−６−２"
    },
    {
      "company" : "ダイキン工業",
      "latitude" : 34.7057309,
      "longitude" : 135.5015482,
      "code" : 6367,
      "place" : "〒530-8323 大阪市北区中崎西２−４−１２"
    },
    {
      "company" : "オルガノ",
      "latitude" : 35.6681041,
      "longitude" : 139.8214787,
      "code" : 6368,
      "place" : "〒136-8631 東京都江東区新砂１−２−８"
    },
    {
      "company" : "トーヨーカネツ",
      "latitude" : 35.667577,
      "longitude" : 139.8413326,
      "code" : 6369,
      "place" : "〒136-8666 東京都江東区東砂８−１９−２０"
    },
    {
      "company" : "栗田工業",
      "latitude" : 35.7024876,
      "longitude" : 139.6700228,
      "code" : 6370,
      "place" : "〒164-0001 東京都中野区中野４−１０−１"
    },
    {
      "company" : "椿本チエイン",
      "latitude" : 34.6931799,
      "longitude" : 135.4940403,
      "code" : 6371,
      "place" : "〒530-0005 大阪市北区中之島３−３−３"
    },
    {
      "company" : "大同工業",
      "latitude" : 36.2989663,
      "longitude" : 136.3127914,
      "code" : 6373,
      "place" : "〒922-8686 石川県加賀市熊坂町イ１９７"
    },
    {
      "company" : "日本コンベヤ",
      "latitude" : 34.7119933,
      "longitude" : 135.6324061,
      "code" : 6375,
      "place" : "〒574-0073 大阪府大東市緑が丘２−１−１"
    },
    {
      "company" : "日機装",
      "latitude" : 35.6431632,
      "longitude" : 139.7132337,
      "code" : 6376,
      "place" : "〒150-6022 東京都渋谷区恵比寿４−２０−３"
    },
    {
      "company" : "木村化工機",
      "latitude" : 34.7193221,
      "longitude" : 135.4452587,
      "code" : 6378,
      "place" : "〒660-8567 兵庫県尼崎市杭瀬寺島２−１−２"
    },
    {
      "company" : "新興プランテック",
      "latitude" : 35.4027804,
      "longitude" : 139.6225185,
      "code" : 6379,
      "place" : "〒235-0017 横浜市磯子区新磯子町２７−５"
    },
    {
      "company" : "アネスト岩田",
      "latitude" : 35.5349169,
      "longitude" : 139.6083876,
      "code" : 6381,
      "place" : "〒223-8501 横浜市港北区新吉田町３１７６"
    },
    {
      "company" : "ダイフク",
      "latitude" : 34.7164255,
      "longitude" : 135.4576188,
      "code" : 6383,
      "place" : "〒555-0012 大阪市西淀川区御幣島３−２−１１"
    },
    {
      "company" : "加藤製作所",
      "latitude" : 35.6066603,
      "longitude" : 139.7477657,
      "code" : 6390,
      "place" : "〒140-0011 東京都品川区東大井１−９−３７"
    },
    {
      "company" : "油研工業",
      "latitude" : 35.41575419999999,
      "longitude" : 139.4551881,
      "code" : 6393,
      "place" : "〒252-1113 神奈川県綾瀬市上土棚中４−４−３４"
    },
    {
      "company" : "タダノ",
      "latitude" : 34.33573870000001,
      "longitude" : 134.1007361,
      "code" : 6395,
      "place" : "〒761-0185 高松市新田町甲３４"
    },
    {
      "company" : "フジテック",
      "latitude" : 35.2961311,
      "longitude" : 136.2795924,
      "code" : 6406,
      "place" : "〒522-8588 滋賀県彦根市宮田町５９１−１"
    },
    {
      "company" : "ＣＫＤ",
      "latitude" : 35.2798424,
      "longitude" : 136.9354999,
      "code" : 6407,
      "place" : "〒485-8551 愛知県小牧市応時２−２５０"
    },
    {
      "company" : "キトー",
      "latitude" : 35.6295641,
      "longitude" : 138.5223349,
      "code" : 6409,
      "place" : "〒409-3853 山梨県中巨摩郡昭和町築地新居２０００"
    },
    {
      "company" : "平和",
      "latitude" : 35.7098878,
      "longitude" : 139.7788597,
      "code" : 6412,
      "place" : "〒110-0015 東京都台東区東上野２−２２−９"
    },
    {
      "company" : "理想科学工業",
      "latitude" : 35.6462388,
      "longitude" : 139.7470472,
      "code" : 6413,
      "place" : "〒108-8385 東京都港区芝５−３４−７"
    },
    {
      "company" : "ＳＡＮＫＹＯ",
      "latitude" : 35.6560308,
      "longitude" : 139.7037202,
      "code" : 6417,
      "place" : "〒150-0002 東京都渋谷区渋谷３−２９−１４"
    },
    {
      "company" : "日本金銭機械",
      "latitude" : 34.6274543,
      "longitude" : 135.5462075,
      "code" : 6418,
      "place" : "〒547-0035 大阪市平野区西脇２−３−１５"
    },
    {
      "company" : "マースエンジニアリング",
      "latitude" : 35.6883161,
      "longitude" : 139.7131069,
      "code" : 6419,
      "place" : "〒160-8420 東京都新宿区新宿１−１０−７"
    },
    {
      "company" : "福島工業",
      "latitude" : 34.7182669,
      "longitude" : 135.4559689,
      "code" : 6420,
      "place" : "〒555-0012 大阪市西淀川区御幣島３−１６−１１"
    },
    {
      "company" : "オーイズミ",
      "latitude" : 35.441496,
      "longitude" : 139.3635721,
      "code" : 6428,
      "place" : "〒243-0018 神奈川県厚木市中町２−７−１０"
    },
    {
      "company" : "ダイコク電機",
      "latitude" : 35.1727193,
      "longitude" : 136.8913717,
      "code" : 6430,
      "place" : "〒450-8640 名古屋市中村区那古野１−４３−５"
    },
    {
      "company" : "アマノ",
      "latitude" : 35.5119445,
      "longitude" : 139.6301443,
      "code" : 6436,
      "place" : "〒222-8558 横浜市港北区大豆戸町２７５"
    },
    {
      "company" : "ＪＵＫＩ",
      "latitude" : 35.6203691,
      "longitude" : 139.4174989,
      "code" : 6440,
      "place" : "〒206-8551 東京都多摩市鶴牧２−１１−１"
    },
    {
      "company" : "サンデン",
      "latitude" : 36.334114,
      "longitude" : 139.1977245,
      "code" : 6444,
      "place" : "〒372-8502 群馬県伊勢崎市寿町２０"
    },
    {
      "company" : "蛇の目ミシン工業",
      "latitude" : 35.6320023,
      "longitude" : 139.2793576,
      "code" : 6445,
      "place" : "〒193-0941 東京都八王子市狭間町１４６３"
    },
    {
      "company" : "ブラザー工業",
      "latitude" : 35.1183717,
      "longitude" : 136.9219816,
      "code" : 6448,
      "place" : "〒467-8561 名古屋市瑞穂区苗代町１５−１"
    },
    {
      "company" : "マックス",
      "latitude" : 35.67941649999999,
      "longitude" : 139.7843048,
      "code" : 6454,
      "place" : "〒103-8502 東京都中央区日本橋箱崎町６−６"
    },
    {
      "company" : "モリタホールディングス",
      "latitude" : 34.6882467,
      "longitude" : 135.5013792,
      "code" : 6455,
      "place" : "〒541-0045 大阪市中央区道修町３−６−１"
    },
    {
      "company" : "グローリー",
      "latitude" : 34.8431512,
      "longitude" : 134.65198,
      "code" : 6457,
      "place" : "〒670-8567 兵庫県姫路市下手野１−３−１"
    },
    {
      "company" : "新晃工業",
      "latitude" : 34.6965765,
      "longitude" : 135.5098865,
      "code" : 6458,
      "place" : "〒530-0054 大阪市北区南森町１−４−５"
    },
    {
      "company" : "大和冷機工業",
      "latitude" : 34.6662281,
      "longitude" : 135.5260456,
      "code" : 6459,
      "place" : "〒543-0028 大阪市天王寺区小橋町３−１３"
    },
    {
      "company" : "セガサミーホールディングス",
      "latitude" : 35.6623122,
      "longitude" : 139.7602401,
      "code" : 6460,
      "place" : "〒105-0021 東京都港区東新橋１−９−２"
    },
    {
      "company" : "日本ピストンリング",
      "latitude" : 35.8900724,
      "longitude" : 139.6185054,
      "code" : 6461,
      "place" : "〒338-8503 さいたま市中央区本町東５−１２−１０"
    },
    {
      "company" : "リケン",
      "latitude" : 35.6963746,
      "longitude" : 139.7505064,
      "code" : 6462,
      "place" : "〒102-8202 東京都千代田区九段北１−１３−５"
    },
    {
      "company" : "ＴＰＲ",
      "latitude" : 35.6841764,
      "longitude" : 139.766406,
      "code" : 6463,
      "place" : "〒100-0005 東京都千代田区丸の内１−６−２"
    },
    {
      "company" : "ホシザキ電機",
      "latitude" : 35.0555027,
      "longitude" : 136.9807692,
      "code" : 6465,
      "place" : "〒470-1194 愛知県豊明市栄町南館３−１６"
    },
    {
      "company" : "大豊工業",
      "latitude" : 35.0639934,
      "longitude" : 137.1452622,
      "code" : 6470,
      "place" : "〒471-8502 愛知県豊田市緑ヶ丘３−６５"
    },
    {
      "company" : "日本精工",
      "latitude" : 35.620272,
      "longitude" : 139.7300746,
      "code" : 6471,
      "place" : "〒141-8560 東京都品川区大崎１−６−３"
    },
    {
      "company" : "ＮＴＮ",
      "latitude" : 34.6873495,
      "longitude" : 135.4971185,
      "code" : 6472,
      "place" : "〒550-0003 大阪市西区京町堀１−３−１７"
    },
    {
      "company" : "ジェイテクト",
      "latitude" : 35.1698862,
      "longitude" : 136.8852029,
      "code" : 6473,
      "place" : "〒450-8515 名古屋市中村区名駅４−７−１"
    },
    {
      "company" : "不二越",
      "latitude" : 35.6623122,
      "longitude" : 139.7602401,
      "code" : 6474,
      "place" : "〒105-0021 東京都港区東新橋１−９−２"
    },
    {
      "company" : "ミネベア",
      "latitude" : 35.6416892,
      "longitude" : 139.741053,
      "code" : 6479,
      "place" : "〒108-8330 東京都港区三田３−９−６"
    },
    {
      "company" : "日本トムソン",
      "latitude" : 35.6397616,
      "longitude" : 139.7410229,
      "code" : 6480,
      "place" : "〒108-8586 東京都港区高輪２−１９−１９"
    },
    {
      "company" : "ＴＨＫ",
      "latitude" : 35.6270707,
      "longitude" : 139.7153895,
      "code" : 6481,
      "place" : "〒141-8503 東京都品川区西五反田３−１１−６"
    },
    {
      "company" : "ユーシン精機",
      "latitude" : 34.9471474,
      "longitude" : 135.7245855,
      "code" : 6482,
      "place" : "〒612-8492 京都市伏見区久我本町１１−２６０"
    },
    {
      "company" : "前澤給装工業",
      "latitude" : 35.6303278,
      "longitude" : 139.6869864,
      "code" : 6485,
      "place" : "〒152-8510 東京都目黒区鷹番２−１３−５"
    },
    {
      "company" : "イーグル工業",
      "latitude" : 35.6579293,
      "longitude" : 139.7529852,
      "code" : 6486,
      "place" : "〒105-8587 東京都港区芝大門１−１２−１５"
    },
    {
      "company" : "前澤工業",
      "latitude" : 35.8059794,
      "longitude" : 139.7047563,
      "code" : 6489,
      "place" : "〒332-8556 埼玉県川口市仲町５−１１"
    },
    {
      "company" : "日本ピラー工業",
      "latitude" : 34.7268027,
      "longitude" : 135.4804251,
      "code" : 6490,
      "place" : "〒532-0022 大阪市淀川区野中南２−１１−４８"
    },
    {
      "company" : "キッツ",
      "latitude" : 35.6521724,
      "longitude" : 140.0369532,
      "code" : 6498,
      "place" : "〒261-8577 千葉市美浜区中瀬１−１０−１"
    },
    {
      "company" : "日立製作所",
      "latitude" : 35.6831127,
      "longitude" : 139.7658169,
      "code" : 6501,
      "place" : "〒100-8280 東京都千代田区丸の内１−６−６"
    },
    {
      "company" : "東芝",
      "latitude" : 35.6515162,
      "longitude" : 139.757685,
      "code" : 6502,
      "place" : "〒105-8001 東京都港区芝浦１−１−１"
    },
    {
      "company" : "三菱電機",
      "latitude" : 35.6785966,
      "longitude" : 139.7649921,
      "code" : 6503,
      "place" : "〒100-8310 東京都千代田区丸の内２−７−３"
    },
    {
      "company" : "富士電機",
      "latitude" : 35.6186917,
      "longitude" : 139.7319107,
      "code" : 6504,
      "place" : "〒141-0032 東京都品川区大崎１−１１−２"
    },
    {
      "company" : "東洋電機製造",
      "latitude" : 35.6822873,
      "longitude" : 139.7713581,
      "code" : 6505,
      "place" : "〒103-0028 東京都中央区八重洲１−４−１６"
    },
    {
      "company" : "安川電機",
      "latitude" : 33.869098,
      "longitude" : 130.7654037,
      "code" : 6506,
      "place" : "〒806-0004 北九州市八幡西区黒崎城石２−１"
    },
    {
      "company" : "シンフォニアテクノロジー",
      "latitude" : 35.6595041,
      "longitude" : 139.7532185,
      "code" : 6507,
      "place" : "〒105-8564 東京都港区芝大門１−１−３０"
    },
    {
      "company" : "明電舎",
      "latitude" : 35.618461,
      "longitude" : 139.7276249,
      "code" : 6508,
      "place" : "〒141-6029 東京都品川区大崎２−１−１"
    },
    {
      "company" : "オリジン電気",
      "latitude" : 35.7136495,
      "longitude" : 139.714975,
      "code" : 6513,
      "place" : "〒171-8555 東京都豊島区高田１−１８−１"
    },
    {
      "company" : "山洋電気",
      "latitude" : 35.7316148,
      "longitude" : 139.7284594,
      "code" : 6516,
      "place" : "〒170-8451 東京都豊島区南大塚３−３３−１"
    },
    {
      "company" : "デンヨー",
      "latitude" : 35.68873200000001,
      "longitude" : 139.7815297,
      "code" : 6517,
      "place" : "〒103-8566 東京都中央区日本橋堀留町２−８−５"
    },
    {
      "company" : "日立工機",
      "latitude" : 35.6278159,
      "longitude" : 139.74209,
      "code" : 6581,
      "place" : "〒108-6020 東京都港区港南２−１５−１"
    },
    {
      "company" : "三櫻工業",
      "latitude" : 35.646249,
      "longitude" : 139.7134366,
      "code" : 6584,
      "place" : "〒150-0013 東京都渋谷区恵比寿１−２３−２３"
    },
    {
      "company" : "マキタ",
      "latitude" : 34.9848574,
      "longitude" : 137.0808799,
      "code" : 6586,
      "place" : "〒446-8502 愛知県安城市住吉町３−１１−８"
    },
    {
      "company" : "東芝テック",
      "latitude" : 35.6193971,
      "longitude" : 139.7308079,
      "code" : 6588,
      "place" : "〒141-8562 東京都品川区大崎１−１１−１"
    },
    {
      "company" : "芝浦メカトロニクス",
      "latitude" : 35.3552823,
      "longitude" : 139.5361683,
      "code" : 6590,
      "place" : "〒247-8610 横浜市栄区笠間２−５−１"
    },
    {
      "company" : "マブチモーター",
      "latitude" : 35.7800376,
      "longitude" : 139.9597333,
      "code" : 6592,
      "place" : "〒270-2280 千葉県松戸市松飛台４３０"
    },
    {
      "company" : "日本電産",
      "latitude" : 34.9513051,
      "longitude" : 135.7160392,
      "code" : 6594,
      "place" : "〒601-8205 京都市南区久世殿城町３３８"
    },
    {
      "company" : "東光高岳ホールディングス",
      "latitude" : 35.6569562,
      "longitude" : 139.7957251,
      "code" : 6617,
      "place" : "〒135-0061 東京都江東区豊洲３−２−２０"
    },
    {
      "company" : "宮越ホールディングス",
      "latitude" : 35.5857011,
      "longitude" : 139.730829,
      "code" : 6620,
      "place" : "〒143-0016 東京都大田区大森北１−２３−１"
    },
    {
      "company" : "ダイヘン",
      "latitude" : 34.7199672,
      "longitude" : 135.473584,
      "code" : 6622,
      "place" : "〒532-8512 大阪市淀川区田川２−１−１１"
    },
    {
      "company" : "ヤーマン",
      "latitude" : 35.6710533,
      "longitude" : 139.8170045,
      "code" : 6630,
      "place" : "〒135-0016 東京都江東区東陽２−４−２"
    },
    {
      "company" : "ＪＶＣケンウッド",
      "latitude" : 35.4835423,
      "longitude" : 139.6527814,
      "code" : 6632,
      "place" : "〒221-0022 横浜市神奈川区守屋町３−１２"
    },
    {
      "company" : "第一精工",
      "latitude" : 34.930875,
      "longitude" : 135.7818606,
      "code" : 6640,
      "place" : "〒612-8024 京都市伏見区桃山町根来１２−４"
    },
    {
      "company" : "日新電機",
      "latitude" : 35.0030389,
      "longitude" : 135.7090515,
      "code" : 6641,
      "place" : "〒615-8686 京都市右京区梅津高畝町４７"
    },
    {
      "company" : "大崎電気工業",
      "latitude" : 35.6247849,
      "longitude" : 139.7274428,
      "code" : 6644,
      "place" : "〒141-0022 東京都品川区東五反田２−１０−２"
    },
    {
      "company" : "オムロン",
      "latitude" : 34.9867469,
      "longitude" : 135.7544085,
      "code" : 6645,
      "place" : "〒600-8530 京都市下京区塩小路通堀川東入"
    },
    {
      "company" : "日東工業",
      "latitude" : 35.1708043,
      "longitude" : 137.0298701,
      "code" : 6651,
      "place" : "〒480-1189 愛知県長久手市蟹原２２０１"
    },
    {
      "company" : "ＩＤＥＣ",
      "latitude" : 34.7364576,
      "longitude" : 135.4889966,
      "code" : 6652,
      "place" : "〒532-0004 大阪市淀川区西宮原２−６−６４"
    },
    {
      "company" : "ジーエス・ユアサ　コーポレーション",
      "latitude" : 34.9814299,
      "longitude" : 135.7287775,
      "code" : 6674,
      "place" : "〒601-8520 京都市南区吉祥院西ノ庄猪之馬場町１"
    },
    {
      "company" : "サクサホールディングス",
      "latitude" : 35.6445386,
      "longitude" : 139.7347122,
      "code" : 6675,
      "place" : "〒108-8050 東京都港区白金１−１７−３"
    },
    {
      "company" : "メルコホールディングス",
      "latitude" : 35.1600743,
      "longitude" : 136.9058652,
      "code" : 6676,
      "place" : "〒460-8315 名古屋市中区大須３−３０−２０"
    },
    {
      "company" : "テクノメディカ",
      "latitude" : 35.5358135,
      "longitude" : 139.5866349,
      "code" : 6678,
      "place" : "〒224-0041 横浜市都筑区仲町台５−５−１"
    },
    {
      "company" : "日本電気",
      "latitude" : 35.6494996,
      "longitude" : 139.7480276,
      "code" : 6701,
      "place" : "〒108-8001 東京都港区芝５−７−１"
    },
    {
      "company" : "富士通",
      "latitude" : 35.6654008,
      "longitude" : 139.7610622,
      "code" : 6702,
      "place" : "〒105-7123 東京都港区東新橋１−５−２"
    },
    {
      "company" : "沖電気工業",
      "latitude" : 35.6696389,
      "longitude" : 139.7493657,
      "code" : 6703,
      "place" : "〒105-8460 東京都港区虎ノ門１−７−１２"
    },
    {
      "company" : "岩崎通信機",
      "latitude" : 35.6832414,
      "longitude" : 139.5969864,
      "code" : 6704,
      "place" : "〒168-8501 東京都杉並区久我山１−７−４１"
    },
    {
      "company" : "電気興業",
      "latitude" : 35.67738,
      "longitude" : 139.7629117,
      "code" : 6706,
      "place" : "〒100-0005 東京都千代田区丸の内３−３−１"
    },
    {
      "company" : "サンケン電気",
      "latitude" : 35.8179662,
      "longitude" : 139.5663101,
      "code" : 6707,
      "place" : "〒352-8666 埼玉県新座市北野３−６−３"
    },
    {
      "company" : "ナカヨ通信機",
      "latitude" : 36.40258540000001,
      "longitude" : 139.0465182,
      "code" : 6715,
      "place" : "〒371-0853 前橋市総社町１−３−２"
    },
    {
      "company" : "アイホン",
      "latitude" : 35.1305219,
      "longitude" : 136.8906259,
      "code" : 6718,
      "place" : "〒456-8666 名古屋市熱田区神野町２−１８"
    },
    {
      "company" : "ルネサスエレクトロニクス",
      "latitude" : 35.6853209,
      "longitude" : 139.7700388,
      "code" : 6723,
      "place" : "〒100-0004 東京都千代田区大手町２−６−２"
    },
    {
      "company" : "セイコーエプソン",
      "latitude" : 36.0547506,
      "longitude" : 138.1153671,
      "code" : 6724,
      "place" : "〒392-8502 長野県諏訪市大和３−３−５"
    },
    {
      "company" : "ワコム",
      "latitude" : 36.1251119,
      "longitude" : 139.6621529,
      "code" : 6727,
      "place" : "〒349-1148 埼玉県加須市豊野台２−５１０−１"
    },
    {
      "company" : "アルバック",
      "latitude" : 35.3391966,
      "longitude" : 139.3790901,
      "code" : 6728,
      "place" : "〒253-8543 神奈川県茅ヶ崎市萩園２５００"
    },
    {
      "company" : "アクセル",
      "latitude" : 35.7005247,
      "longitude" : 139.7725077,
      "code" : 6730,
      "place" : "〒101-8973 東京都千代田区外神田４−１４−１"
    },
    {
      "company" : "ピクセラ",
      "latitude" : 34.6617913,
      "longitude" : 135.5017994,
      "code" : 6731,
      "place" : "〒556-0011 大阪市浪速区難波中２−１０−７０"
    },
    {
      "company" : "ＥＩＺＯ",
      "latitude" : 36.4946451,
      "longitude" : 136.5323424,
      "code" : 6737,
      "place" : "〒924-8566 石川県白山市下柏野町１５３"
    },
    {
      "company" : "日本信号",
      "latitude" : 35.68255,
      "longitude" : 139.7643722,
      "code" : 6741,
      "place" : "〒100-6513 東京都千代田区丸の内１−５−１"
    },
    {
      "company" : "京三製作所",
      "latitude" : 35.5066427,
      "longitude" : 139.6937776,
      "code" : 6742,
      "place" : "〒230-0031 横浜市鶴見区平安町２−２９−１"
    },
    {
      "company" : "能美防災",
      "latitude" : 35.6911221,
      "longitude" : 139.7387241,
      "code" : 6744,
      "place" : "〒102-8277 東京都千代田区九段南４−７−３"
    },
    {
      "company" : "ホーチキ",
      "latitude" : 35.6356975,
      "longitude" : 139.7159448,
      "code" : 6745,
      "place" : "〒141-8660 東京都品川区上大崎２−１０−４３"
    },
    {
      "company" : "エレコム",
      "latitude" : 34.6894021,
      "longitude" : 135.5001626,
      "code" : 6750,
      "place" : "〒541-8765 大阪市中央区伏見町４−１−１"
    },
    {
      "company" : "日本無線",
      "latitude" : 35.68855980000001,
      "longitude" : 139.5711024,
      "code" : 6751,
      "place" : "〒181-8510 東京都三鷹市下連雀５−１−１"
    },
    {
      "company" : "パナソニック",
      "latitude" : 34.7415003,
      "longitude" : 135.5714528,
      "code" : 6752,
      "place" : "〒571-8501 大阪府門真市大字門真１００６"
    },
    {
      "company" : "シャープ",
      "latitude" : 34.62161280000001,
      "longitude" : 135.5172044,
      "code" : 6753,
      "place" : "〒545-8522 大阪市阿倍野区長池町２２−２２"
    },
    {
      "company" : "アンリツ",
      "latitude" : 35.4470558,
      "longitude" : 139.3408932,
      "code" : 6754,
      "place" : "〒243-8555 神奈川県厚木市恩名５－１－１"
    },
    {
      "company" : "富士通ゼネラル",
      "latitude" : 35.5908357,
      "longitude" : 139.6166288,
      "code" : 6755,
      "place" : "〒213-8502 川崎市高津区末長１１１６"
    },
    {
      "company" : "日立国際電気",
      "latitude" : 35.7005247,
      "longitude" : 139.7725077,
      "code" : 6756,
      "place" : "〒101-8980 東京都千代田区外神田４−１４−１"
    },
    {
      "company" : "ソニー",
      "latitude" : 35.6311655,
      "longitude" : 139.7436119,
      "code" : 6758,
      "place" : "〒108-0075 東京都港区港南１−７−１"
    },
    {
      "company" : "ＴＤＫ",
      "latitude" : 35.6437004,
      "longitude" : 139.7502747,
      "code" : 6762,
      "place" : "〒108-0023 東京都港区芝浦３−９−１"
    },
    {
      "company" : "帝国通信工業",
      "latitude" : 35.5597545,
      "longitude" : 139.6641981,
      "code" : 6763,
      "place" : "〒211-8530 川崎市中原区苅宿４５−１"
    },
    {
      "company" : "ミツミ電機",
      "latitude" : 35.6196581,
      "longitude" : 139.4177072,
      "code" : 6767,
      "place" : "〒206-8567 東京都多摩市鶴牧２−１１−２"
    },
    {
      "company" : "タムラ製作所",
      "latitude" : 35.7499088,
      "longitude" : 139.5925875,
      "code" : 6768,
      "place" : "〒178-8511 東京都練馬区東大泉１−１９−４３"
    },
    {
      "company" : "アルプス電気",
      "latitude" : 35.5943517,
      "longitude" : 139.6810663,
      "code" : 6770,
      "place" : "〒145-8501 東京都大田区雪谷大塚町１−７"
    },
    {
      "company" : "池上通信機",
      "latitude" : 35.5730718,
      "longitude" : 139.7082625,
      "code" : 6771,
      "place" : "〒146-8567 東京都大田区池上５−６−１６"
    },
    {
      "company" : "パイオニア",
      "latitude" : 35.543346,
      "longitude" : 139.673495,
      "code" : 6773,
      "place" : "〒212-0031 川崎市幸区新小倉１−１"
    },
    {
      "company" : "日本電波工業",
      "latitude" : 35.6746192,
      "longitude" : 139.6713503,
      "code" : 6779,
      "place" : "〒151-8569 東京都渋谷区笹塚１−５０−１"
    },
    {
      "company" : "日本トリム",
      "latitude" : 34.6995452,
      "longitude" : 135.4941573,
      "code" : 6788,
      "place" : "〒530-0001 大阪市北区梅田２−２−２２"
    },
    {
      "company" : "ローランド　ディー．ジー．",
      "latitude" : 34.8224772,
      "longitude" : 137.7382315,
      "code" : 6789,
      "place" : "〒431-2103 浜松市北区新都田１−６−４"
    },
    {
      "company" : "日本コロムビア",
      "latitude" : 35.6664724,
      "longitude" : 139.7451829,
      "code" : 6791,
      "place" : "〒105-8482 東京都港区虎ノ門４−１−４０"
    },
    {
      "company" : "フォスター電機",
      "latitude" : 35.7191651,
      "longitude" : 139.3666411,
      "code" : 6794,
      "place" : "〒196-8550 東京都昭島市つつじが丘１−１−１０９"
    },
    {
      "company" : "クラリオン",
      "latitude" : 35.89683,
      "longitude" : 139.6300486,
      "code" : 6796,
      "place" : "〒330-0081 さいたま市中央区新都心７−２"
    },
    {
      "company" : "ＳＭＫ",
      "latitude" : 35.6084535,
      "longitude" : 139.7163594,
      "code" : 6798,
      "place" : "〒142-8511 東京都品川区戸越６−５−５"
    },
    {
      "company" : "ヨコオ",
      "latitude" : 35.7449466,
      "longitude" : 139.7201679,
      "code" : 6800,
      "place" : "〒114-8515 東京都北区滝野川７−５−１１"
    },
    {
      "company" : "東光",
      "latitude" : 35.94250350000001,
      "longitude" : 139.4263551,
      "code" : 6801,
      "place" : "〒350-2281 埼玉県鶴ヶ島市大字五味ヶ谷１８"
    },
    {
      "company" : "ティアック",
      "latitude" : 35.6218358,
      "longitude" : 139.4231622,
      "code" : 6803,
      "place" : "〒206-8530 東京都多摩市落合１−４７"
    },
    {
      "company" : "ホシデン",
      "latitude" : 34.6319042,
      "longitude" : 135.5883258,
      "code" : 6804,
      "place" : "〒581-0071 大阪府八尾市北久宝寺１−４−３３"
    },
    {
      "company" : "ヒロセ電機",
      "latitude" : 35.6230992,
      "longitude" : 139.7244277,
      "code" : 6806,
      "place" : "〒141-8587 東京都品川区大崎５−５−２３"
    },
    {
      "company" : "日本航空電子工業",
      "latitude" : 35.6564305,
      "longitude" : 139.6966959,
      "code" : 6807,
      "place" : "〒150-0043 東京都渋谷区道玄坂１−２１−２"
    },
    {
      "company" : "ＴＯＡ",
      "latitude" : 34.6693326,
      "longitude" : 135.2162989,
      "code" : 6809,
      "place" : "〒650-0046 神戸市中央区港島中町７−２−１"
    },
    {
      "company" : "古野電気",
      "latitude" : 34.7410381,
      "longitude" : 135.3545715,
      "code" : 6814,
      "place" : "〒662-8580 兵庫県西宮市芦原町９−５２"
    },
    {
      "company" : "ユニデン",
      "latitude" : 35.6768055,
      "longitude" : 139.7759388,
      "code" : 6815,
      "place" : "〒104-8512 東京都中央区八丁堀２−１２−７"
    },
    {
      "company" : "アルパイン",
      "latitude" : 35.6258628,
      "longitude" : 139.7230611,
      "code" : 6816,
      "place" : "〒141-8501 東京都品川区西五反田１−１−８"
    },
    {
      "company" : "スミダコーポレーション",
      "latitude" : 35.6834188,
      "longitude" : 139.7843603,
      "code" : 6817,
      "place" : "〒103-8589 東京都中央区日本橋蛎殻町１−３９−５"
    },
    {
      "company" : "アイコム",
      "latitude" : 34.6259992,
      "longitude" : 135.5692583,
      "code" : 6820,
      "place" : "〒547-0003 大阪市平野区加美南１−１−３２"
    },
    {
      "company" : "リオン",
      "latitude" : 35.696159,
      "longitude" : 139.4748189,
      "code" : 6823,
      "place" : "〒185-8533 東京都国分寺市東元町３−２０−４１"
    },
    {
      "company" : "船井電機",
      "latitude" : 34.7050414,
      "longitude" : 135.6382863,
      "code" : 6839,
      "place" : "〒574-0013 大阪府大東市中垣内７−７−１"
    },
    {
      "company" : "横河電機",
      "latitude" : 35.7073048,
      "longitude" : 139.565119,
      "code" : 6841,
      "place" : "〒180-8750 東京都武蔵野市中町２−９−３２"
    },
    {
      "company" : "新電元工業",
      "latitude" : 35.6852764,
      "longitude" : 139.7670557,
      "code" : 6844,
      "place" : "〒100-0004 東京都千代田区大手町２−２−１"
    },
    {
      "company" : "アズビル",
      "latitude" : 35.6785966,
      "longitude" : 139.7649921,
      "code" : 6845,
      "place" : "〒100-6419 東京都千代田区丸の内２−７−３"
    },
    {
      "company" : "東亜ディーケーケー",
      "latitude" : 35.7107688,
      "longitude" : 139.7041402,
      "code" : 6848,
      "place" : "〒169-8648 東京都新宿区高田馬場１−２９−１０"
    },
    {
      "company" : "日本光電工業",
      "latitude" : 35.7195309,
      "longitude" : 139.6790894,
      "code" : 6849,
      "place" : "〒161-8560 東京都新宿区西落合１−３１−４"
    },
    {
      "company" : "チノー",
      "latitude" : 35.7426099,
      "longitude" : 139.7054248,
      "code" : 6850,
      "place" : "〒173-8632 東京都板橋区熊野町３２−８"
    },
    {
      "company" : "共和電業",
      "latitude" : 35.657694,
      "longitude" : 139.5479284,
      "code" : 6853,
      "place" : "〒182-8520 東京都調布市調布ケ丘３−５−１"
    },
    {
      "company" : "日本電子材料",
      "latitude" : 34.7260572,
      "longitude" : 135.4210992,
      "code" : 6855,
      "place" : "〒660-0805 兵庫県尼崎市西長洲町２−５−１３"
    },
    {
      "company" : "堀場製作所",
      "latitude" : 34.9839545,
      "longitude" : 135.723053,
      "code" : 6856,
      "place" : "〒601-8510 京都市南区吉祥院宮の東町２"
    },
    {
      "company" : "アドバンテスト",
      "latitude" : 35.6841764,
      "longitude" : 139.766406,
      "code" : 6857,
      "place" : "〒100-0005 東京都千代田区丸の内１−６−２"
    },
    {
      "company" : "小野測器",
      "latitude" : 35.5112416,
      "longitude" : 139.6192009,
      "code" : 6858,
      "place" : "〒222-8507 横浜市港北区新横浜３−９−３"
    },
    {
      "company" : "エスペック",
      "latitude" : 34.7010095,
      "longitude" : 135.5124834,
      "code" : 6859,
      "place" : "〒530-8550 大阪市北区天神橋３−５−６"
    },
    {
      "company" : "パナソニック　デバイスＳＵＮＸ",
      "latitude" : 35.2622029,
      "longitude" : 136.9340369,
      "code" : 6860,
      "place" : "〒486-0901 愛知県春日井市牛山町２４３１−１"
    },
    {
      "company" : "キーエンス",
      "latitude" : 34.7273089,
      "longitude" : 135.5030342,
      "code" : 6861,
      "place" : "〒533-8555 大阪市東淀川区東中島１−３−１４"
    },
    {
      "company" : "日置電機",
      "latitude" : 36.3807965,
      "longitude" : 138.194464,
      "code" : 6866,
      "place" : "〒386-1192 長野県上田市小泉８１"
    },
    {
      "company" : "シスメックス",
      "latitude" : 34.6990131,
      "longitude" : 135.2165952,
      "code" : 6869,
      "place" : "〒651-0073 神戸市中央区脇浜海岸通１−５−１"
    },
    {
      "company" : "メガチップス",
      "latitude" : 34.7371562,
      "longitude" : 135.499775,
      "code" : 6875,
      "place" : "〒532-0003 大阪市淀川区宮原１−１−１"
    },
    {
      "company" : "ＯＢＡＲＡ　ＧＲＯＵＰ",
      "latitude" : 35.5073654,
      "longitude" : 139.4438203,
      "code" : 6877,
      "place" : "〒242-0007 神奈川県大和市中央林間３−２−１０"
    },